stop_lat,zone_id,stop_lon,stop_url,stop_id,stop_name,location_type,stop_code
49.817611138,,-97.1516838653,https://winnipegtransit.com/stops/60140,60140,Northbound Pembina at University Crescent,0,60140
49.8181478535,,-97.151496587,https://winnipegtransit.com/stops/60141,60141,Northbound University at Pembina,0,60141
49.9349160901,,-97.1887281197,https://winnipegtransit.com/stops/30685,30685,Eastbound Tyndall at Chudley,0,30685
49.8184002294,,-97.1515286762,https://winnipegtransit.com/stops/60911,60911,Northbound University at Pembina South,0,60911
49.8178028127,,-97.1905608423,https://winnipegtransit.com/stops/60913,60913,Westbound Scurfield at Dovercourt,0,60913
49.8177537354,,-97.1902985331,https://winnipegtransit.com/stops/60912,60912,Eastbound Scurfield at Dovercourt,0,60912
49.8231667368,,-97.1514721426,https://winnipegtransit.com/stops/60914,60914,Eastbound Plaza at Pembina,0,60914
49.8219713823,,-97.1475969547,https://winnipegtransit.com/stops/60916,60916,Northbound Plaza at Plaza Terminal,0,60916
49.8232102415,,-97.1519432107,https://winnipegtransit.com/stops/60919,60919,Westbound Plaza at Pembina,0,60919
49.8451950965,,-97.130712819,https://winnipegtransit.com/stops/60797,60797,Eastbound South at Wildwood H,0,60797
49.8801144399,,-97.293230568,https://winnipegtransit.com/stops/20521,20521,Northbound Westwood at Byrd,0,20521
49.7876115899,,-97.1788624116,https://winnipegtransit.com/stops/61178,61178,Eastbound John Angus at Gelley,0,61178
49.7881153708,,-97.1748699412,https://winnipegtransit.com/stops/61179,61179,Eastbound John Angus at Brookstone,0,61179
49.8271909487,,-97.0642183425,https://winnipegtransit.com/stops/51069,51069,Northbound Evelyne Reese at Bonaventure,0,51069
49.8246473977,,-97.0638054216,https://winnipegtransit.com/stops/51068,51068,Northbound Evelyne Reese at Geneva,0,51068
49.8227019228,,-97.0545398104,https://winnipegtransit.com/stops/51065,51065,Westbound Jack Reimer at De La Seigneurie,0,51065
49.8248653886,,-97.0548145295,https://winnipegtransit.com/stops/51064,51064,Southbound De La Seigneurie at Lucerne,0,51064
49.881979573,,-97.0787464812,https://winnipegtransit.com/stops/50640,50640,Westbound Marion at Turenne,0,50640
49.8870807546,,-97.1221063115,https://winnipegtransit.com/stops/50641,50641,Eastbound Despins at Valade,0,50641
49.8288387259,,-97.0434612263,https://winnipegtransit.com/stops/51061,51061,Southbound Des Hivernants at Ironweed,0,51061
49.8282658398,,-97.0484207288,https://winnipegtransit.com/stops/51060,51060,Eastbound Warde at Lagimodiere,0,51060
49.887539833,,-97.1188028452,https://winnipegtransit.com/stops/50644,50644,Southbound Aulneau at Despins,0,50644
49.8853313317,,-97.11851282,https://winnipegtransit.com/stops/50645,50645,Southbound Aulneau at Dollard,0,50645
49.8345017426,,-97.1622767769,https://winnipegtransit.com/stops/61206,61206,Northbound Southwest Transitway at Clarence Station,0,61206
49.8336845047,,-97.161793208,https://winnipegtransit.com/stops/61207,61207,Southbound Southwest Transitway at Clarence Station,0,61207
49.8430937948,,-97.1691977891,https://winnipegtransit.com/stops/61204,61204,Northbound Southwest Transitway at Seel Station,0,61204
49.8422493957,,-97.1687011391,https://winnipegtransit.com/stops/61205,61205,Southbound Southwest Transitway at Seel Station,0,61205
49.8487281283,,-97.165437599,https://winnipegtransit.com/stops/61202,61202,Northbound Southwest Transitway at Beaumont Station,0,61202
49.8485970723,,-97.166249398,https://winnipegtransit.com/stops/61203,61203,Southbound Southwest Transitway at Beaumont Station,0,61203
49.8166044225,,-97.1927325137,https://winnipegtransit.com/stops/61201,61201,Northbound Henlow at Scurfield,0,61201
49.8466649037,,-97.1880644923,https://winnipegtransit.com/stops/61101,61101,Eastbound Wilkes at Brockville East,0,61101
49.8305184739,,-97.1589791197,https://winnipegtransit.com/stops/61208,61208,Northbound Southwest Transitway at Chevrier Station,0,61208
49.8299838828,,-97.158735211,https://winnipegtransit.com/stops/61209,61209,Southbound Southwest Transitway at Chevrier Station,0,61209
49.8258201644,,-97.1695719251,https://winnipegtransit.com/stops/61197,61197,Westbound Chevrier at Hamelin,0,61197
49.8277383382,,-97.1977961349,https://winnipegtransit.com/stops/61192,61192,Northbound Lindenwood at Lindenwood,0,61192
49.7814558845,,-97.1832468526,https://winnipegtransit.com/stops/61190,61190,Northbound John Angus at Waverley,0,61190
49.9380469012,,-97.1574063754,https://winnipegtransit.com/stops/30447,30447,Eastbound Inkster at Wiginton,0,30447
49.8508297351,,-97.2071345499,https://winnipegtransit.com/stops/60352,60352,Northbound Kenaston at Taylor,0,60352
49.9347633249,,-97.147233063,https://winnipegtransit.com/stops/30444,30444,Eastbound Inkster at Sinclair,0,30444
49.8228814003,,-97.1782891647,https://winnipegtransit.com/stops/61198,61198,Westbound Chevrier at Gamble,0,61198
49.896015622,,-96.9842940429,https://winnipegtransit.com/stops/40024,40024,Westbound Victoria at Minikada,0,40024
49.9024733092,,-97.2184230234,https://winnipegtransit.com/stops/20523,20523,Westbound Wellington at Flight,0,20523
49.9208083764,,-97.133000385,https://winnipegtransit.com/stops/30115,30115,Westbound Mountain at Aikins,0,30115
49.8126290447,,-97.1991080814,https://winnipegtransit.com/stops/60829,60829,Northbound Columbia at Exbury,0,60829
49.8122659896,,-97.1988991493,https://winnipegtransit.com/stops/60828,60828,Southbound Columbia at Exbury,0,60828
49.8167545521,,-97.1931300729,https://winnipegtransit.com/stops/60825,60825,Eastbound Scurfield at Henlow West,0,60825
49.8167564071,,-97.1938250943,https://winnipegtransit.com/stops/60826,60826,Westbound Scurfield at Henlow,0,60826
49.8405761,,-97.1715321891,https://winnipegtransit.com/stops/60821,60821,Southbound Fennell at Seel,0,60821
49.8377481957,,-97.1690380936,https://winnipegtransit.com/stops/60820,60820,Northbound Fennell at Buffalo,0,60820
49.8318206058,,-97.1645060499,https://winnipegtransit.com/stops/60823,60823,Eastbound Clarence at Irene,0,60823
49.8372688825,,-97.1688753979,https://winnipegtransit.com/stops/60822,60822,Southbound Fennell at Buffalo,0,60822
49.8149543005,,-97.1565532545,https://winnipegtransit.com/stops/60137,60137,Southbound Chancellor at Chancellor Station,0,60137
49.8399655137,,-97.1956725285,https://winnipegtransit.com/stops/60136,60136,Southbound Lindenwood at Tweedsmuir,0,60136
49.8426511114,,-97.1896611202,https://winnipegtransit.com/stops/60135,60135,Southbound Lindenwood at Kingsborough,0,60135
49.816209526,,-97.1523489451,https://winnipegtransit.com/stops/60134,60134,Northbound Chancellor at Pembina,0,60134
49.8153866445,,-97.1548964523,https://winnipegtransit.com/stops/60133,60133,Northbound Chancellor at Gaylene,0,60133
49.8960045087,,-97.306441275,https://winnipegtransit.com/stops/20524,20524,Westbound Lumsden at Lake Ridge East,0,20524
49.8135906526,,-97.1522679737,https://winnipegtransit.com/stops/60130,60130,Southbound Pembina at Thatcher,0,60130
49.9271586629,,-97.1696094477,https://winnipegtransit.com/stops/30488,30488,Westbound Burrows at McPhillips,0,30488
49.817818455,,-97.1511476833,https://winnipegtransit.com/stops/60139,60139,Southbound University at Pembina,0,60139
49.8178984711,,-97.1522151022,https://winnipegtransit.com/stops/60138,60138,Southbound Pembina at University Crescent,0,60138
49.9442244421,,-97.199599488,https://winnipegtransit.com/stops/30648,30648,Southbound Dexter at Kinver,0,30648
49.908909618,,-97.1708575223,https://winnipegtransit.com/stops/17011,17011,Northbound McPhillips at William,0,17011
49.9437072511,,-97.1654976816,https://winnipegtransit.com/stops/30841,30841,Eastbound Mapleglen at Maberley,0,30841
49.9200507929,,-97.0822488626,https://winnipegtransit.com/stops/40351,40351,Northbound Gateway at Kimberly,0,40351
49.9406948427,,-97.2005255033,https://winnipegtransit.com/stops/30663,30663,Northbound Dexter at Brophy,0,30663
49.9515915705,,-97.1032595843,https://winnipegtransit.com/stops/30661,30661,Northbound Main at Chief Peguis,0,30661
49.8019732463,,-97.1559206451,https://winnipegtransit.com/stops/60097,60097,Westbound Chancellor Matheson at Pembina,0,60097
49.899385926,,-97.0636837758,https://winnipegtransit.com/stops/40198,40198,Southbound Stapon at Reenders South,0,40198
49.9175072916,,-97.212227014,https://winnipegtransit.com/stops/20320,20320_merged_67002,Westbound RRC Polytech at RRC Polytech (D16),0,20320
49.9661577057,,-97.189452163,https://winnipegtransit.com/stops/30849,30849,Southbound Ritchie at Foxwarren,0,30849
49.8889764215,,-97.1482072939,https://winnipegtransit.com/stops/10703,10703,Northbound Vaughan at St. Mary,0,10703
49.9373822109,,-97.2154773451,https://winnipegtransit.com/stops/30705,30705,Eastbound Egesz at Markwood,0,30705
49.9458345569,,-97.1938244869,https://winnipegtransit.com/stops/30643,30643,Eastbound Inkster at Keewatin,0,30643
49.8895644705,,-97.147293729,https://winnipegtransit.com/stops/10700,10700,Southbound Kennedy at St. Mary,0,10700
49.8912357276,,-97.1494296064,https://winnipegtransit.com/stops/10706,10706,Northbound Vaughan at Portage South,0,10706
49.9387443677,,-97.2116501245,https://winnipegtransit.com/stops/30704,30704,Westbound Burrows at Palms,0,30704
49.8360931525,,-97.1679045709,https://winnipegtransit.com/stops/60003,60003,Southbound Irene at Sony,0,60003
49.836080642,,-97.1676825256,https://winnipegtransit.com/stops/60002,60002,Northbound Irene at Sony,0,60002
49.8681785349,,-97.2654148092,https://winnipegtransit.com/stops/60001,60001,Northbound William Clement at Roblin,0,60001
49.8431404678,,-97.2008537985,https://winnipegtransit.com/stops/60007,60007,Southbound Lorimer at Sterling Lyon,0,60007
49.8465788256,,-97.2004201156,https://winnipegtransit.com/stops/60006,60006,Northbound Lorimer at Wilkes,0,60006
49.8464823149,,-97.2005767133,https://winnipegtransit.com/stops/60005,60005,Southbound Lorimer at Wilkes,0,60005
49.8468312408,,-97.1946796429,https://winnipegtransit.com/stops/60004,60004,Eastbound Wilkes at Carpenter,0,60004
49.8538441285,,-97.1652995194,https://winnipegtransit.com/stops/60009,60009,Eastbound Taylor at Nathaniel,0,60009
49.8433003403,,-97.2007226787,https://winnipegtransit.com/stops/60008,60008,Northbound Lorimer at Sterling Lyon,0,60008
49.7999932377,,-97.1035482581,https://winnipegtransit.com/stops/50982,50982,Westbound Aldgate at Michaud,0,50982
49.8786666981,,-97.1313274572,https://winnipegtransit.com/stops/50210,50210,Southbound Pinedale at Walmer,0,50210
49.9445952417,,-97.2026242749,https://winnipegtransit.com/stops/30647,30647,Westbound Kinver at Cropo East,0,30647
49.875432748,,-97.1310347381,https://winnipegtransit.com/stops/50212,50212,Eastbound Highfield at Pinedale,0,50212
49.891351084,,-97.1364347462,https://winnipegtransit.com/stops/10639,10639,Southbound Main at St. Mary,0,10639
49.8940644581,,-97.1379175684,https://winnipegtransit.com/stops/10638,10638,Southbound Main at Portage and Main Junction,0,10638
49.8971147159,,-97.1390951697,https://winnipegtransit.com/stops/10636,10636,Southbound Main at McDermot,0,10636
49.8990303652,,-97.1390771688,https://winnipegtransit.com/stops/10635,10635,Southbound Main at William (City Hall),0,10635
49.901780157,,-97.1366735193,https://winnipegtransit.com/stops/10633,10633,Southbound Main at Alexander,0,10633
49.9034052795,,-97.1353714184,https://winnipegtransit.com/stops/10632,10632,Southbound Main at Henry,0,10632
49.9042712199,,-97.1344049171,https://winnipegtransit.com/stops/10631,10631,Northbound Main at Higgins,0,10631
49.9023591196,,-97.1357599171,https://winnipegtransit.com/stops/10630,10630,Northbound Main at Logan,0,10630
49.8781564125,,-97.2934248824,https://winnipegtransit.com/stops/20520,20520,Northbound Westwood at Amundsen,0,20520
49.869643246,,-97.1570465434,https://winnipegtransit.com/stops/10140,10140,Westbound Corydon at Lilac,0,10140
49.870785111,,-97.1530644615,https://winnipegtransit.com/stops/10143,10143,Eastbound Corydon at Cockburn,0,10143
49.8701580297,,-97.1554821402,https://winnipegtransit.com/stops/10142,10142,Westbound Corydon at Arbuthnot,0,10142
49.9055061194,,-97.1723511473,https://winnipegtransit.com/stops/10413,10413,Eastbound Notre Dame at Lipton,0,10413
49.9040939017,,-97.1999101906,https://winnipegtransit.com/stops/20525,20525,Southbound St James at Costco,0,20525
49.9061593327,,-97.1738445596,https://winnipegtransit.com/stops/10411,10411,Westbound Notre Dame at Ingersoll,0,10411
49.8715830629,,-97.1512108144,https://winnipegtransit.com/stops/10146,10146,Westbound Corydon at Hugo,0,10146
49.8732485057,,-97.1462341271,https://winnipegtransit.com/stops/10149,10149,Westbound Corydon at Nassau,0,10149
49.872467413,,-97.1485744022,https://winnipegtransit.com/stops/10148,10148,Westbound Corydon at Daly,0,10148
49.8914305421,,-97.1509258734,https://winnipegtransit.com/stops/17015,17015,Northbound Colony at Portage North,0,17015
49.9034247361,,-97.1658703093,https://winnipegtransit.com/stops/10419,10419,Eastbound Notre Dame at Simcoe,0,10419
49.9035194317,,-97.1656021089,https://winnipegtransit.com/stops/10418,10418,Westbound Notre Dame at Tecumseh,0,10418
49.9198837341,,-97.1949477038,https://winnipegtransit.com/stops/10387,10387,Northbound Keewatin at Pacific,0,10387
49.8837821381,,-97.1957934576,https://winnipegtransit.com/stops/10386,10386,Westbound Westway at Empress,0,10386
49.8947576158,,-97.2659518626,https://winnipegtransit.com/stops/20152,20152,Westbound Murray Park at Saulteaux,0,20152
49.8821134075,,-97.1966491404,https://winnipegtransit.com/stops/10383,10383,Southbound Empress at Eastway,0,10383
49.8848575483,,-97.1995817394,https://winnipegtransit.com/stops/10381,10381,Westbound Polo Park West Access at Polo Park (FX4),0,10381
49.8442043905,,-97.0735956334,https://winnipegtransit.com/stops/50352,50352,Eastbound Beaverhill at Lakewood,0,50352
49.9169156115,,-97.1949610302,https://winnipegtransit.com/stops/10389,10389,Northbound Keewatin at William,0,10389
49.8480106915,,-97.2575539576,https://winnipegtransit.com/stops/60649,60649,Southbound Elmhurst at Beiko,0,60649
49.8448886143,,-97.2580974174,https://winnipegtransit.com/stops/60648,60648,Westbound Ridgewood at Elmhurst,0,60648
49.88602034,,-97.2651373208,https://winnipegtransit.com/stops/20157,20157,Westbound Ness at Wallasey,0,20157
49.9560859456,,-97.1994220071,https://winnipegtransit.com/stops/37009,37009,Eastbound Old Commonwealth at Singh,0,37009
49.9551363362,,-97.1956234792,https://winnipegtransit.com/stops/37005,37005,Westbound Old Commonwealth at Dr. Jose Rizal,0,37005
49.9487597746,,-97.1182447205,https://winnipegtransit.com/stops/37004,37004,Southbound Salter at Templeton,0,37004
49.9500897483,,-97.1165061083,https://winnipegtransit.com/stops/37003,37003,Northbound Southall at Southall Loop,0,37003
49.8522375229,,-97.2604903917,https://winnipegtransit.com/stops/60644,60644,Northbound Laxdal at Eldridge,0,60644
49.8486354044,,-97.2608144593,https://winnipegtransit.com/stops/60646,60646,Northbound Laxdal at Beiko,0,60646
49.8985100318,,-97.1069852191,https://winnipegtransit.com/stops/50160,50160,Southbound Archibald at La Verendrye,0,50160
49.8928638664,,-97.0523880352,https://winnipegtransit.com/stops/40180,40180,Westbound Rougeau at Rizzuto,0,40180
49.892716906,,-97.0527420475,https://winnipegtransit.com/stops/40181,40181,Eastbound Rougeau at Rizzuto,0,40181
49.8957880521,,-97.0540387366,https://winnipegtransit.com/stops/40182,40182,Westbound Regent at Peguis,0,40182
49.8956563909,,-97.0547681163,https://winnipegtransit.com/stops/40183,40183,Eastbound Regent at Peguis,0,40183
49.8930584767,,-97.0564738341,https://winnipegtransit.com/stops/40184,40184,Westbound Rougeau at Bachinsky,0,40184
49.8928931692,,-97.0562716173,https://winnipegtransit.com/stops/40185,40185,Eastbound Rougeau at Bachinsky,0,40185
49.8967886908,,-97.0595267032,https://winnipegtransit.com/stops/40186,40186,Westbound Regent at Kildonan Place Hub,0,40186
49.896270723,,-97.0581410735,https://winnipegtransit.com/stops/40187,40187,Eastbound Regent at Rougeau,0,40187
49.8952890503,,-97.0580690859,https://winnipegtransit.com/stops/40188,40188,Westbound Rougeau at Regent,0,40188
49.8755261693,,-97.2545594921,https://winnipegtransit.com/stops/20221,20221,Westbound Portage at Whytewold,0,20221
49.8803958017,,-97.1995667548,https://winnipegtransit.com/stops/10562,10562,Eastbound Portage at Tylehurst (Polo Park),0,10562
49.8808120464,,-97.1991475849,https://winnipegtransit.com/stops/10561,10561,Westbound Portage at Tylehurst (Polo Park),0,10561
49.8758167781,,-97.2511667713,https://winnipegtransit.com/stops/20220,20220,Westbound Portage at Strathmillan,0,20220
49.8770334481,,-97.2311907241,https://winnipegtransit.com/stops/20418,20418,Eastbound Portage at Overdale (Assiniboine Park),0,20418
49.8828484423,,-97.1866962235,https://winnipegtransit.com/stops/10566,10566,Eastbound Portage at Erin,0,10566
49.8822328443,,-97.1898931907,https://winnipegtransit.com/stops/10565,10565,Eastbound Portage at Craig,0,10565
49.8037218013,,-97.1777159285,https://winnipegtransit.com/stops/61171,61171,Eastbound Bridgeland at Poplar Point,0,61171
49.874569948,,-97.3206640972,https://winnipegtransit.com/stops/20414,20414,Northbound St Charles at Augier,0,20414
49.8733512913,,-97.3209847268,https://winnipegtransit.com/stops/20415,20415,Southbound St Charles at St. Charles Loop,0,20415
49.8840316321,,-97.1784105696,https://winnipegtransit.com/stops/10569,10569,Eastbound Portage at Dominion,0,10569
49.8836550536,,-97.1813481636,https://winnipegtransit.com/stops/10568,10568,Eastbound Portage at Sprague,0,10568
49.8230706958,,-97.0615047261,https://winnipegtransit.com/stops/51067,51067,Northbound Evelyne Reese at Warde,0,51067
49.8748602629,,-97.3208349649,https://winnipegtransit.com/stops/20413,20413,Southbound St Charles at Augier,0,20413
49.9422716519,,-97.1459554231,https://winnipegtransit.com/stops/30411,30411,Westbound Jefferson at Airlies East,0,30411
49.940491184,,-97.1403790963,https://winnipegtransit.com/stops/30413,30413,Westbound Jefferson at Teakwood,0,30413
49.941400435,,-97.1432291976,https://winnipegtransit.com/stops/30412,30412,Westbound Jefferson at Sinclair,0,30412
49.8650851092,,-97.1588899077,https://winnipegtransit.com/stops/10097,10097,Northbound Stafford at Fleet,0,10097
49.9402808486,,-97.1401641964,https://winnipegtransit.com/stops/30414,30414,Eastbound Jefferson at Teakwood,0,30414
49.942127375,,-97.1459330863,https://winnipegtransit.com/stops/30417,30417,Eastbound Jefferson at Airlies East,0,30417
49.9411995409,,-97.1430417938,https://winnipegtransit.com/stops/30416,30416,Eastbound Jefferson at Sinclair,0,30416
49.9433768074,,-97.1498157184,https://winnipegtransit.com/stops/30419,30419,Eastbound Jefferson at Tulip,0,30419
49.8664788752,,-97.1599919545,https://winnipegtransit.com/stops/10099,10099,Northbound Stafford at Warsaw,0,10099
49.8652171571,,-97.1592745288,https://winnipegtransit.com/stops/10098,10098,Southbound Stafford at Fleet,0,10098
49.8265048,,-97.0565563882,https://winnipegtransit.com/stops/51063,51063,Southbound De La Seigneurie at Warde,0,51063
49.8284338197,,-97.0482471034,https://winnipegtransit.com/stops/51062,51062,Westbound Warde at Lagimodiere,0,51062
49.7855333171,,-97.1527383389,https://winnipegtransit.com/stops/60662,60662,Northbound Baylor at Leeds,0,60662
49.9460435648,,-97.1899276838,https://winnipegtransit.com/stops/30639,30639,Westbound Inkster at Plymouth,0,30639
49.8579082375,,-97.1420767146,https://winnipegtransit.com/stops/10043,10043,Westbound Beresford at Cockburn,0,10043
49.9362006625,,-97.0469619685,https://winnipegtransit.com/stops/40364,40364,Eastbound Sun Valley at Kingsdale,0,40364
49.9366592697,,-97.0474869486,https://winnipegtransit.com/stops/40365,40365,Westbound Sun Valley at Hovingham,0,40365
49.9198940822,,-97.1584746794,https://winnipegtransit.com/stops/30321,30321,Eastbound Selkirk at Sinclair,0,30321
49.9200172781,,-97.1583028068,https://winnipegtransit.com/stops/30320,30320,Westbound Selkirk at Sinclair,0,30320
49.9392607869,,-97.0513399573,https://winnipegtransit.com/stops/40360,40360,Eastbound Sun Valley at Regatta East,0,40360
49.939236948,,-97.050992488,https://winnipegtransit.com/stops/40361,40361,Westbound Sun Valley at Regatta East,0,40361
49.9487481368,,-97.178841726,https://winnipegtransit.com/stops/30637,30637,Eastbound Mapleton at Rozmus East,0,30637
49.9482528428,,-97.1770900693,https://winnipegtransit.com/stops/30636,30636,Eastbound Mapleton at Madrill,0,30636
49.7700955329,,-97.2022821679,https://winnipegtransit.com/stops/62088,62088,Westbound Ken Oblik at Youngstown,0,62088
49.7708378584,,-97.1898937988,https://winnipegtransit.com/stops/62085,62085,Westbound Ken Oblik at Hughes,0,62085
49.7733828186,,-97.1887017209,https://winnipegtransit.com/stops/62084,62084,Southbound Ken Oblik at Northwater,0,62084
49.7701836685,,-97.1986956834,https://winnipegtransit.com/stops/62087,62087,Westbound Ken Oblik at Florence,0,62087
49.7702124466,,-97.19419475,https://winnipegtransit.com/stops/62086,62086,Westbound Ken Oblik at Crystal Lake,0,62086
49.8139984683,,-97.1592307773,https://winnipegtransit.com/stops/62081,62081,Northbound Chancellor at Lake Village,0,62081
49.7798380506,,-97.2000185222,https://winnipegtransit.com/stops/62080,62080,Westbound Skyline at Highpark,0,62080
49.7749210566,,-97.191005642,https://winnipegtransit.com/stops/62083,62083,Eastbound Ken Oblik at Ken Wong,0,62083
49.8417902702,,-97.2083313139,https://winnipegtransit.com/stops/62082,62082,Westbound Sterling Lyon at Kenaston,0,62082
49.9121945089,,-97.0814879714,https://winnipegtransit.com/stops/40320,40320,Eastbound Munroe at London,0,40320
49.8804266077,,-97.2857445343,https://winnipegtransit.com/stops/20259,20259,Eastbound Portage at Golf,0,20259
49.9540376217,,-97.0587180396,https://winnipegtransit.com/stops/40614,40614,Eastbound Headmaster at Douglas Lawrence,0,40614
49.8825096366,,-97.3074981992,https://winnipegtransit.com/stops/20252,20252,Eastbound Portage at Bedson,0,20252
49.8828616733,,-97.3038943595,https://winnipegtransit.com/stops/20253,20253,Eastbound Portage at Seaton,0,20253
49.8820556904,,-97.3115231539,https://winnipegtransit.com/stops/20251,20251,Eastbound Portage at David,0,20251
49.8808837893,,-97.2886794049,https://winnipegtransit.com/stops/20257,20257,Eastbound Portage at Banting,0,20257
49.8824956027,,-97.2991742001,https://winnipegtransit.com/stops/20254,20254,Eastbound Portage at Rouge,0,20254
49.882174579,,-97.2969164455,https://winnipegtransit.com/stops/20255,20255,Eastbound Portage at Muriel,0,20255
49.9418965939,,-97.0545647844,https://winnipegtransit.com/stops/40743,40743,Northbound Gateway at Sun Valley,0,40743
49.9349372152,,-97.0451177558,https://winnipegtransit.com/stops/40741,40741,Westbound Sun Valley at St. Moritz,0,40741
49.9360539076,,-97.0628553093,https://winnipegtransit.com/stops/40746,40746,Northbound Raleigh at Springfield,0,40746
49.9434180182,,-97.053569615,https://winnipegtransit.com/stops/40747,40747,Northbound Raleigh at McIvor South,0,40747
49.9171378109,,-97.1486470835,https://winnipegtransit.com/stops/30259,30259,Northbound McGregor at Selkirk,0,30259
49.9283882183,,-97.1734225721,https://winnipegtransit.com/stops/30525,30525,Westbound Burrows at McNichol,0,30525
49.9195011686,,-97.14681513,https://winnipegtransit.com/stops/30256,30256,Northbound McGregor at Burrows,0,30256
49.9199142382,,-97.1467714285,https://winnipegtransit.com/stops/30255,30255,Southbound McGregor at Burrows,0,30255
49.9327250603,,-97.1712240638,https://winnipegtransit.com/stops/30521,30521,Eastbound Mountain at Fife,0,30521
49.9320270031,,-97.1686028388,https://winnipegtransit.com/stops/30520,30520,Westbound Mountain at McPhillips West,0,30520
49.9223531135,,-97.1446020012,https://winnipegtransit.com/stops/30250,30250,Northbound McGregor at Boyd,0,30250
49.9309164057,,-97.1883485567,https://winnipegtransit.com/stops/30741,30741,Eastbound Manitoba at Buller,0,30741
49.9315502874,,-97.1903453379,https://winnipegtransit.com/stops/30740,30740,Eastbound Manitoba at Chudley,0,30740
49.9469593752,,-97.1104251948,https://winnipegtransit.com/stops/30748,30748,Southbound Margaret Loop at Margaret,0,30748
49.9557568385,,-97.15451367,https://winnipegtransit.com/stops/30367,30367,Westbound Leila at Simkin,0,30367
49.8577249538,,-97.0500167856,https://winnipegtransit.com/stops/50099,50099,Southbound Lagimodiere at Fermor,0,50099
49.9544781381,,-97.1504776953,https://winnipegtransit.com/stops/30366,30366,Westbound Leila at Watson East (Seven Oaks Hospital),0,30366
49.8165774102,,-97.1315656054,https://winnipegtransit.com/stops/50096,50096,Eastbound St.Amant Access at St.Amant East,0,50096
49.8595250463,,-97.0543551393,https://winnipegtransit.com/stops/50095,50095,Westbound Paterson at Lagimodiere,0,50095
49.8595565603,,-97.0540895019,https://winnipegtransit.com/stops/50093,50093,Eastbound Paterson at Lagimodiere,0,50093
49.8593979424,,-97.0569622078,https://winnipegtransit.com/stops/50092,50092,Eastbound Paterson at Lochmoor,0,50092
49.8593065327,,-97.0574111297,https://winnipegtransit.com/stops/50091,50091,Westbound Paterson at Lochmoor,0,50091
49.8587878281,,-97.0591990192,https://winnipegtransit.com/stops/50090,50090,Eastbound Paterson at Peterboro,0,50090
49.8819462719,,-97.1072990997,https://winnipegtransit.com/stops/50259,50259,Eastbound Marion at Youville,0,50259
49.8818250261,,-97.1103385354,https://winnipegtransit.com/stops/50258,50258,Eastbound Marion at Des Meurons,0,50258
49.821554615,,-97.1373244659,https://winnipegtransit.com/stops/50709,50709,Southbound River at Avalon,0,50709
49.8024065907,,-97.1119594159,https://winnipegtransit.com/stops/50708,50708,Westbound Burland at Malmsbury,0,50708
49.8814240437,,-97.1205161493,https://winnipegtransit.com/stops/50255,50255,Eastbound Marion at Kenny,0,50255
49.8812864999,,-97.1236814309,https://winnipegtransit.com/stops/50254,50254,Eastbound Marion at Tache,0,50254
49.8816647259,,-97.1142982344,https://winnipegtransit.com/stops/50257,50257,Eastbound Marion at Braemar,0,50257
49.8815309729,,-97.1176861321,https://winnipegtransit.com/stops/50256,50256,Eastbound Marion at Traverse,0,50256
49.8824491048,,-97.121047092,https://winnipegtransit.com/stops/50251,50251,Westbound Goulet at Kenny,0,50251
49.8825753237,,-97.1177429583,https://winnipegtransit.com/stops/50250,50250,Westbound Goulet at Traverse,0,50250
49.8811852771,,-97.1268731285,https://winnipegtransit.com/stops/50253,50253,Eastbound Marion at St. Mary's,0,50253
49.8822553562,,-97.1240754104,https://winnipegtransit.com/stops/50252,50252,Westbound Goulet at Tache,0,50252
49.9495208619,,-97.0458098023,https://winnipegtransit.com/stops/40858,40858,Northbound Raleigh at Knowles,0,40858
49.828752184,,-97.0431309875,https://winnipegtransit.com/stops/50897,50897,Northbound Des Hivernants at Ironweed,0,50897
49.8322303616,,-97.0440196742,https://winnipegtransit.com/stops/50896,50896,Westbound Lafrance at Proulx,0,50896
49.8955661892,,-97.1090359421,https://winnipegtransit.com/stops/50894,50894,Westbound Provencher at Nadeau,0,50894
49.8401297509,,-97.0817272604,https://winnipegtransit.com/stops/50893,50893,Northbound Shorehill at Abinojii Mikanah,0,50893
49.8389344129,,-97.0812460525,https://winnipegtransit.com/stops/50892,50892,Northbound Shorehill at High Ridge,0,50892
49.8364959796,,-97.0779491155,https://winnipegtransit.com/stops/50891,50891,Northbound Shorehill at Norcross,0,50891
49.8345869731,,-97.0762029791,https://winnipegtransit.com/stops/50890,50890,Northbound Shorehill at Wildfire,0,50890
49.8332090359,,-97.0455099279,https://winnipegtransit.com/stops/50899,50899,Northbound Burning Glass at Sage Creek,0,50899
49.8336318506,,-97.0465776156,https://winnipegtransit.com/stops/50898,50898,Eastbound Sage Creek at Burning Glass,0,50898
49.9447127487,,-97.0869984229,https://winnipegtransit.com/stops/40416,40416,Southbound Henderson at Sutton,0,40416
49.9466286092,,-97.0853613134,https://winnipegtransit.com/stops/40415,40415,Southbound Henderson at Whellams,0,40415
49.9494255869,,-97.0820720422,https://winnipegtransit.com/stops/40412,40412,Southbound Henderson at Valhalla,0,40412
49.9513987311,,-97.0795540281,https://winnipegtransit.com/stops/40410,40410,Southbound Henderson at Fortier,0,40410
49.887263463,,-97.1888975319,https://winnipegtransit.com/stops/10240,10240,Southbound Valour at Wolever,0,10240
49.9416632645,,-97.0897116717,https://winnipegtransit.com/stops/40418,40418,Southbound Henderson at Edison,0,40418
49.9382920534,,-97.1952493665,https://winnipegtransit.com/stops/31018,31018,Southbound Keewatin at Burrows,0,31018
49.8865537849,,-97.0596169805,https://winnipegtransit.com/stops/50853,50853,Northbound Terracon at Dugald,0,50853
49.8380788153,,-97.1030043162,https://winnipegtransit.com/stops/50413,50413,Westbound Beliveau at Kearney,0,50413
49.8378143745,,-97.1033345488,https://winnipegtransit.com/stops/50412,50412,Eastbound Beliveau at Kearney,0,50412
49.8367758282,,-97.1063792422,https://winnipegtransit.com/stops/50411,50411,Eastbound Beliveau at Eric,0,50411
49.8370232091,,-97.1061053311,https://winnipegtransit.com/stops/50410,50410,Westbound Beliveau at Eric,0,50410
49.8409038639,,-97.0948266033,https://winnipegtransit.com/stops/50417,50417,Westbound Beliveau at St. Anne's,0,50417
49.8390234083,,-97.1002691329,https://winnipegtransit.com/stops/50415,50415,Westbound Beliveau at Beechtree,0,50415
49.8389307764,,-97.100105864,https://winnipegtransit.com/stops/50414,50414,Eastbound Beliveau at Beechtree,0,50414
49.9277711447,,-97.1246915378,https://winnipegtransit.com/stops/31012,31012,Westbound Inkster at Main,0,31012
49.890531613,,-97.05973591,https://winnipegtransit.com/stops/50856,50856,Southbound Terracon at Elan,0,50856
49.916786756,,-97.1296034085,https://winnipegtransit.com/stops/30084,30084,Eastbound Redwood at Main,0,30084
49.8810924611,,-97.1992485134,https://winnipegtransit.com/stops/10881,10881,Southbound Polo Park at Polo Park Hub (D16),0,10881
49.8808988467,,-97.2933560286,https://winnipegtransit.com/stops/20360,20360,Southbound Westwood at Portage,0,20360
49.8891802225,,-97.0596091085,https://winnipegtransit.com/stops/50854,50854,Northbound Terracon at Terracon Central,0,50854
49.816349251,,-97.1526494617,https://winnipegtransit.com/stops/60903,60903,Southbound Chancellor at Pembina,0,60903
49.8272261657,,-97.0852551594,https://winnipegtransit.com/stops/50675,50675,Southbound St Anne's at Novavista,0,50675
49.8088992912,,-97.203944558,https://winnipegtransit.com/stops/60901,60901,Eastbound Columbia at Westmoreland,0,60901
49.8282163272,,-97.094560377,https://winnipegtransit.com/stops/50673,50673,Northbound Ashworth at Woodydell,0,50673
49.8266200732,,-97.0932187205,https://winnipegtransit.com/stops/50672,50672,Northbound Ashworth at Whitley,0,50672
49.824739635,,-97.0915546311,https://winnipegtransit.com/stops/50671,50671,Northbound Ashworth at Novavista,0,50671
49.8230287796,,-97.0903567166,https://winnipegtransit.com/stops/50670,50670,Southbound Ashworth at Harlesden,0,50670
49.825712167,,-97.1964949023,https://winnipegtransit.com/stops/60908,60908,Southbound Lindenwood at Fairhaven,0,60908
49.8252415543,,-97.1957337669,https://winnipegtransit.com/stops/60909,60909,Northbound Lindenwood at Fairhaven,0,60909
49.9554709208,,-97.1608541718,https://winnipegtransit.com/stops/30387,30387,Northbound Pipeline at Adsum,0,30387
49.8302313352,,-97.0962055084,https://winnipegtransit.com/stops/50679,50679,Northbound Ashworth at Wales,0,50679
49.86108559,,-97.0761385416,https://winnipegtransit.com/stops/50074,50074,Westbound Cottonwood at Autumnwood,0,50074
49.8610809859,,-97.0726183065,https://winnipegtransit.com/stops/50076,50076,Westbound Cottonwood at Speers,0,50076
49.8634159552,,-97.0783419997,https://winnipegtransit.com/stops/50071,50071,Southbound Autumnwood at Erie,0,50071
49.8648374025,,-97.0783551711,https://winnipegtransit.com/stops/50070,50070,Southbound Autumnwood at Betournay,0,50070
49.8111820046,,-97.079480357,https://winnipegtransit.com/stops/51078,51078,Westbound John Forsyth at Aldgate,0,51078
49.863493856,,-97.0781580084,https://winnipegtransit.com/stops/50072,50072,Northbound Autumnwood at Winakwa,0,50072
49.8331415804,,-97.0677355463,https://winnipegtransit.com/stops/51076,51076,Westbound Island Lakes at Island Shore,0,51076
49.8503580851,,-97.1201495317,https://winnipegtransit.com/stops/51077,51077,Westbound Fermor at Dunkirk,0,51077
49.8350313654,,-97.0640165269,https://winnipegtransit.com/stops/51075,51075,Westbound Island Lakes at Desjardins,0,51075
49.860964731,,-97.0715793331,https://winnipegtransit.com/stops/50079,50079,Eastbound Cottonwood at Speers,0,50079
49.8609434277,,-97.0773269343,https://winnipegtransit.com/stops/50078,50078,Eastbound Cottonwood at Autumnwood,0,50078
49.8287399491,,-97.0632526483,https://winnipegtransit.com/stops/51070,51070,Southbound Island Shore at Evelyne Reese,0,51070
49.8739287114,,-97.1903568048,https://winnipegtransit.com/stops/60344,60344,Eastbound Academy at Campbell,0,60344
49.8741436597,,-97.191448315,https://winnipegtransit.com/stops/60345,60345,Westbound Academy at Borebank,0,60345
49.7941572317,,-97.1976396048,https://winnipegtransit.com/stops/61231,61231,Northbound Centre at Bison,0,61231
49.8737496884,,-97.1852416052,https://winnipegtransit.com/stops/60340,60340,Eastbound Academy at Niagara,0,60340
49.8739541694,,-97.1862360536,https://winnipegtransit.com/stops/60341,60341,Westbound Academy at Queenston,0,60341
49.7979982058,,-97.1970662045,https://winnipegtransit.com/stops/61234,61234,Northbound Centre at North Town,0,61234
49.8246009424,,-97.2066027583,https://winnipegtransit.com/stops/61239,61239,Southbound Kenaston Common at Kenaston,0,61239
49.827051089,,-97.1655069753,https://winnipegtransit.com/stops/61238,61238,Eastbound Chevrier at Trottier,0,61238
49.8743206748,,-97.1964523043,https://winnipegtransit.com/stops/60348,60348,Westbound Academy at Lanark,0,60348
49.8741723992,,-97.1967501125,https://winnipegtransit.com/stops/60349,60349,Eastbound Academy at Lanark,0,60349
49.9261669215,,-97.113425963,https://winnipegtransit.com/stops/30049,30049,Westbound Matheson at Scotia,0,30049
49.8507715435,,-97.2074427573,https://winnipegtransit.com/stops/60929,60929,Southbound Kenaston at Taylor,0,60929
49.8911967562,,-97.0426113069,https://winnipegtransit.com/stops/40168,40168,Westbound Rougeau at Bournais,0,40168
49.8910316604,,-97.0424230596,https://winnipegtransit.com/stops/40169,40169,Eastbound Rougeau at Bournais,0,40169
49.9002150062,,-97.1688050501,https://winnipegtransit.com/stops/10268,10268,Eastbound Wellington at Arlington,0,10268
49.8505748172,,-97.2098428127,https://winnipegtransit.com/stops/60838,60838,Westbound Taylor at Kenaston West,0,60838
49.8879812396,,-97.1693376924,https://winnipegtransit.com/stops/10269,10269,Southbound Arlington at St. Paul,0,10269
49.8428096384,,-97.1796961428,https://winnipegtransit.com/stops/60836,60836,Southbound Waverley at Victor Lewis,0,60836
49.8424873439,,-97.1792214255,https://winnipegtransit.com/stops/60835,60835,Northbound Waverley at Victor Lewis,0,60835
49.839026611,,-97.1753736783,https://winnipegtransit.com/stops/60831,60831,Southbound Otter at Seel,0,60831
49.8060257352,,-97.1550856116,https://winnipegtransit.com/stops/60120,60120,Northbound Pembina at Victoria Hospital,0,60120
49.9044334724,,-97.1676564931,https://winnipegtransit.com/stops/11155,11155,Northbound Arlington at Notre Dame,0,11155
49.8087541675,,-97.1547038827,https://winnipegtransit.com/stops/60124,60124,Westbound Markham at Pembina,0,60124
49.8104218413,,-97.1532365542,https://winnipegtransit.com/stops/60125,60125,Southbound Pembina at Southpark South,0,60125
49.8107273876,,-97.1526550189,https://winnipegtransit.com/stops/60126,60126,Northbound Pembina at Southpark,0,60126
49.8132257416,,-97.1519482512,https://winnipegtransit.com/stops/60129,60129,Northbound Pembina at Thatcher,0,60129
49.8992035825,,-97.1397807086,https://winnipegtransit.com/stops/11156,11156,Westbound William at King,0,11156
49.8981788565,,-97.2001442559,https://winnipegtransit.com/stops/11151,11151,Northbound St James at Sargent,0,11151
49.9215355778,,-97.1953178999,https://winnipegtransit.com/stops/11150,11150,Eastbound Logan at Keewatin,0,11150
49.8650945443,,-97.1347596393,https://winnipegtransit.com/stops/11153,11153,Westbound Morley at Osborne,0,11153
49.9079989054,,-97.0473631893,https://winnipegtransit.com/stops/40893,40893,Southbound Peguis at Prairie Crocus,0,40893
49.9006767506,,-97.1357412104,https://winnipegtransit.com/stops/10800,10800,Eastbound Pacific at Martha,0,10800
49.9035487179,,-97.1646121957,https://winnipegtransit.com/stops/11152,11152,Northbound Tecumseh at Notre Dame,0,11152
49.90069214,,-97.0504016647,https://winnipegtransit.com/stops/40890,40890,Northbound Peguis at Cal Gardner,0,40890
49.8081616887,,-97.0921094449,https://winnipegtransit.com/stops/51106,51106,Southbound Dakota at John Forsyth,0,51106
49.8496626113,,-97.0643222869,https://winnipegtransit.com/stops/50325,50325,Northbound Beaverhill at Edgewater,0,50325
49.8284983176,,-97.1051590412,https://winnipegtransit.com/stops/51104,51104,Northbound Dakota at Meadowood,0,51104
49.9044466212,,-97.0474091455,https://winnipegtransit.com/stops/40891,40891,Northbound Peguis at Ravelston,0,40891
49.8710511672,,-97.0728337904,https://winnipegtransit.com/stops/51102,51102,Westbound Elizabeth at Speers,0,51102
49.8423379827,,-97.1126297289,https://winnipegtransit.com/stops/51103,51103,Southbound St Mary's at St. Vital,0,51103
49.8982449254,,-96.9692868889,https://winnipegtransit.com/stops/41005,41005,Southbound Ravenhurst at John Duncan,0,41005
49.8824438707,,-97.1368612838,https://winnipegtransit.com/stops/11016,11016,Westbound River at Donald,0,11016
49.8565520657,,-97.1000965642,https://winnipegtransit.com/stops/51108,51108,Westbound Alpine at Alpine,0,51108
49.8262604957,,-97.1107805373,https://winnipegtransit.com/stops/51109,51109,Westbound Meadowood at St. Vital Centre (FX2),0,51109
49.853818151,,-97.0659231497,https://winnipegtransit.com/stops/50320,50320,Westbound Vermillion at Beaverhill,0,50320
49.9253571467,,-97.2213971302,https://winnipegtransit.com/stops/20532,20532,Westbound Logan at Parent,0,20532
49.7655987535,,-97.1566069359,https://winnipegtransit.com/stops/60018,60018,Northbound Villeneuve at Gendreau,0,60018
49.8522641123,,-97.063898365,https://winnipegtransit.com/stops/50323,50323,Northbound Beaverhill at Grover Hills,0,50323
49.8939880064,,-97.1903862944,https://winnipegtransit.com/stops/10500,10500,Westbound Ellice at Strathcona,0,10500
49.7678859777,,-97.1590199862,https://winnipegtransit.com/stops/60014,60014,Westbound Ducharme at Villeneuve,0,60014
49.8469556775,,-97.1940073042,https://winnipegtransit.com/stops/60015,60015,Westbound Wilkes at Carpenter,0,60015
49.7672603531,,-97.1604046807,https://winnipegtransit.com/stops/60016,60016,Eastbound Ducharme at Houde,0,60016
49.7658233957,,-97.1639447801,https://winnipegtransit.com/stops/60017,60017,Eastbound Ducharme at le Maire,0,60017
49.8177516368,,-97.1525960536,https://winnipegtransit.com/stops/60010,60010,Eastbound Abinojii Mikanah Ramp EB to Pembina at Pembina,0,60010
49.8469445239,,-97.1909891473,https://winnipegtransit.com/stops/60013,60013,Westbound Wilkes at Villa Nova,0,60013
49.8939170063,,-97.1881471885,https://winnipegtransit.com/stops/10502,10502,Westbound Ellice at Valour,0,10502
49.8018429468,,-97.1652647681,https://winnipegtransit.com/stops/61266,61266,Westbound Bison at Markham,0,61266
49.8969808092,,-97.1385990236,https://winnipegtransit.com/stops/10628,10628,Northbound Main at McDermot,0,10628
49.8999006276,,-97.1378182161,https://winnipegtransit.com/stops/10629,10629,Northbound Main at James (Concert Hall),0,10629
49.923929372,,-97.1257462569,https://winnipegtransit.com/stops/30063,30063,Westbound Cathedral at Main East,0,30063
49.8827708979,,-97.2542147005,https://winnipegtransit.com/stops/20474,20474,Southbound Whytewold at Bruce,0,20474
49.9237097957,,-97.1255179179,https://winnipegtransit.com/stops/30064,30064,Eastbound Cathedral at Main East,0,30064
49.9384205683,,-97.1605418504,https://winnipegtransit.com/stops/30448,30448,Northbound McPhillips at Inkster,0,30448
49.8937925973,,-97.1842252929,https://winnipegtransit.com/stops/10506,10506,Westbound Ellice at Erin,0,10506
49.8892568427,,-97.1348586067,https://winnipegtransit.com/stops/10625,10625,Northbound Main at Broadway (Union Station),0,10625
49.8949007014,,-97.1378993031,https://winnipegtransit.com/stops/10627,10627,Northbound Main at Portage and Main Junction,0,10627
49.8797905615,,-97.137993503,https://winnipegtransit.com/stops/10153,10153,Southbound Donald at Stradbrook,0,10153
49.8966344563,,-97.1596945333,https://winnipegtransit.com/stops/10402,10402,Westbound Sargent at Maryland,0,10402
49.8845154204,,-97.1331202124,https://winnipegtransit.com/stops/10157,10157,Eastbound Mayfair at Queen Elizabeth,0,10157
49.8943615888,,-97.2028204689,https://winnipegtransit.com/stops/20089,20089,Westbound Ellice at Century,0,20089
49.9075215896,,-97.1786678845,https://winnipegtransit.com/stops/10407,10407,Eastbound Notre Dame at Wall,0,10407
49.9072282422,,-97.1771747278,https://winnipegtransit.com/stops/10408,10408,Westbound Notre Dame at Myrtle,0,10408
49.8979739086,,-97.2095513474,https://winnipegtransit.com/stops/20086,20086,Northbound Berry at Sargent,0,20086
49.8851563879,,-97.1321488197,https://winnipegtransit.com/stops/10158,10158,Northbound Queen Elizabeth at Mayfair,0,10158
49.8839050594,,-97.1320857491,https://winnipegtransit.com/stops/10159,10159,Southbound Queen Elizabeth at Stradbrook,0,10159
49.9163699666,,-97.1957336499,https://winnipegtransit.com/stops/10390,10390,Eastbound Notre Dame at Keewatin,0,10390
49.9140775988,,-97.1929357429,https://winnipegtransit.com/stops/10393,10393,Eastbound Notre Dame at Bannatyne,0,10393
49.9143738245,,-97.1928968099,https://winnipegtransit.com/stops/10394,10394,Westbound Notre Dame at Bannatyne,0,10394
49.9106998422,,-97.1880336902,https://winnipegtransit.com/stops/10399,10399,Westbound Notre Dame at Flint,0,10399
49.7876009482,,-97.1526596843,https://winnipegtransit.com/stops/60658,60658,Northbound Baylor at Mount Allison,0,60658
49.9411474615,,-97.0889794366,https://winnipegtransit.com/stops/41003,41003,Eastbound Edison at Henderson,0,41003
49.9591335347,,-97.2068513609,https://winnipegtransit.com/stops/37010,37010,Southbound King Edward at Coalstone,0,37010
49.9529693242,,-97.2200872757,https://winnipegtransit.com/stops/37011,37011,Eastbound Discovery at Discovery,0,37011
49.9462971387,,-97.1261326987,https://winnipegtransit.com/stops/37012,37012,Northbound McGregor at Leila,0,37012
49.9487651415,,-97.1180214729,https://winnipegtransit.com/stops/37013,37013,Northbound Salter at Templeton,0,37013
49.9461420929,,-97.1265568897,https://winnipegtransit.com/stops/37014,37014,Southbound McGregor at Partridge,0,37014
49.9544618917,,-97.1000238896,https://winnipegtransit.com/stops/37015,37015,Eastbound Murray at Main,0,37015
49.8583903965,,-97.2539387206,https://winnipegtransit.com/stops/60654,60654,Southbound Cathcart at Grant,0,60654
49.8479771879,,-97.1538505015,https://winnipegtransit.com/stops/60655,60655,Westbound Windermere at Windermere Terminal,0,60655
49.9024686743,,-97.1297255083,https://winnipegtransit.com/stops/10714,10714,Eastbound Disraeli at Henry,0,10714
49.9026365539,,-97.1300950334,https://winnipegtransit.com/stops/10715,10715,Westbound Disraeli at Henry,0,10715
49.9017197928,,-97.1346008255,https://winnipegtransit.com/stops/10716,10716,Westbound Disraeli at Martha,0,10716
49.8936029271,,-97.1366264807,https://winnipegtransit.com/stops/10710,10710,Eastbound William Stephenson at Portage and Main Junction,0,10710
49.9015238377,,-97.1341627437,https://winnipegtransit.com/stops/10712,10712,Eastbound Disraeli at Martha,0,10712
49.9090030052,,-97.1705057805,https://winnipegtransit.com/stops/10713,10713,Westbound William at McPhillips,0,10713
49.8866354897,,-97.1644463243,https://winnipegtransit.com/stops/17006,17006,Westbound Broadway at Portage,0,17006
49.8268655246,,-97.1995110419,https://winnipegtransit.com/stops/61135,61135,Northbound Lindenwood at Lindenwood Terrace,0,61135
49.8951898838,,-97.0457637714,https://winnipegtransit.com/stops/40175,40175,Eastbound Regent at Starlight,0,40175
49.8954383446,,-97.045029653,https://winnipegtransit.com/stops/40174,40174,Westbound Regent at Club Regent (Park & Ride),0,40174
49.892487695,,-97.0498133593,https://winnipegtransit.com/stops/40177,40177,Westbound Rougeau at Trudell,0,40177
49.8923022879,,-97.0494866644,https://winnipegtransit.com/stops/40176,40176,Eastbound Rougeau at Bernard,0,40176
49.8951716892,,-97.0404314039,https://winnipegtransit.com/stops/40171,40171,Eastbound Regent at Owen,0,40171
49.8954274957,,-97.0422590916,https://winnipegtransit.com/stops/40170,40170,Westbound Regent at Owen,0,40170
49.8916475228,,-97.0458650991,https://winnipegtransit.com/stops/40173,40173,Eastbound Rougeau at Perry,0,40173
49.8918823473,,-97.0464543284,https://winnipegtransit.com/stops/40172,40172,Westbound Rougeau at Wendilene,0,40172
49.8816364129,,-97.2757486469,https://winnipegtransit.com/stops/20469,20469,"Eastbound Pearl McGonigal at Grace Hospital (220, 883, 885)",0,20469
49.8781056467,,-97.2718099768,https://winnipegtransit.com/stops/20468,20468,Southbound Ronald at Portage,0,20468
49.8912189515,,-97.3156726968,https://winnipegtransit.com/stops/20399,20399,Northbound Buchanan at Hamilton,0,20399
49.9138664463,,-97.0480594914,https://winnipegtransit.com/stops/40882,40882,Westbound Concordia at Peguis,0,40882
49.9178672432,,-97.0404865829,https://winnipegtransit.com/stops/40884,40884,Eastbound Concordia at Whittington,0,40884
49.9150476602,,-97.0450307144,https://winnipegtransit.com/stops/40887,40887,Eastbound Concordia at Pinetop,0,40887
49.8754984145,,-97.3078268462,https://winnipegtransit.com/stops/20393,20393,Northbound Bedson at Sansome,0,20393
49.8868479307,,-97.1642294359,https://winnipegtransit.com/stops/10575,10575,Eastbound Portage at Broadway,0,10575
49.8877984462,,-97.1606431977,https://winnipegtransit.com/stops/10576,10576,Eastbound Portage at Maryland,0,10576
49.8678190044,,-97.3085962077,https://winnipegtransit.com/stops/20390,20390,Northbound Bedson at Assiniboine,0,20390
49.893255488,,-97.2780079229,https://winnipegtransit.com/stops/20465,20465,Southbound Sturgeon at Silver,0,20465
49.884751779,,-97.3163015056,https://winnipegtransit.com/stops/20396,20396,Northbound Buchanan at Livinia,0,20396
49.8824596002,,-97.3071519356,https://winnipegtransit.com/stops/20395,20395,Northbound Bedson at Portage,0,20395
49.8785073229,,-97.3075267902,https://winnipegtransit.com/stops/20394,20394,Northbound Bedson at Allard,0,20394
49.9438993504,,-97.1509944047,https://winnipegtransit.com/stops/30401,30401,Westbound Jefferson at Tulip,0,30401
49.9457164007,,-97.1380870217,https://winnipegtransit.com/stops/30406,30406,Southbound Sinclair at Lincrest,0,30406
49.8593072946,,-97.1541839585,https://winnipegtransit.com/stops/10089,10089,Northbound Stafford at Ebby,0,10089
49.8565286355,,-97.151980237,https://winnipegtransit.com/stops/10085,10085,Northbound Pembina at Stafford,0,10085
49.856893103,,-97.1522724268,https://winnipegtransit.com/stops/10086,10086,Southbound Pembina at Stafford,0,10086
49.8573982958,,-97.1523644642,https://winnipegtransit.com/stops/10087,10087,Northbound Stafford at Stafford Loop,0,10087
49.8608853378,,-97.1499216299,https://winnipegtransit.com/stops/10081,10081,Southbound Pembina at Ebby,0,10081
49.8596564336,,-97.1501355413,https://winnipegtransit.com/stops/10082,10082,Northbound Pembina at Jackson,0,10082
49.9292341256,,-97.1490893407,https://winnipegtransit.com/stops/30303,30303,Southbound Arlington at Church,0,30303
49.9125612079,,-97.0808187319,https://winnipegtransit.com/stops/40319,40319,Southbound London at Munroe,0,40319
49.9082041397,,-97.1300747187,https://winnipegtransit.com/stops/30628,30628,Westbound Euclid at Granville,0,30628
49.95215283,,-97.1837180374,https://winnipegtransit.com/stops/30629,30629,Northbound Mandalay at Margate,0,30629
49.954938653,,-97.1755410324,https://winnipegtransit.com/stops/30622,30622,Eastbound Adsum at Manila,0,30622
49.9145369218,,-97.0789990328,https://winnipegtransit.com/stops/40310,40310,Northbound London at Fleming,0,40310
49.9039743788,,-97.088638356,https://winnipegtransit.com/stops/40313,40313,Westbound Talbot at Cameron,0,40313
49.9550579392,,-97.1762614892,https://winnipegtransit.com/stops/30621,30621,Westbound Adsum at Manila,0,30621
49.916950119,,-97.0780672792,https://winnipegtransit.com/stops/40315,40315,Westbound Concordia at London,0,40315
49.9056078982,,-97.125829758,https://winnipegtransit.com/stops/30627,30627,Westbound Sutherland at Disraeli,0,30627
49.9548919272,,-97.1805757125,https://winnipegtransit.com/stops/30624,30624,Eastbound Adsum at Ashmore,0,30624
49.9164849712,,-97.0776817859,https://winnipegtransit.com/stops/40316,40316,Southbound London at Concordia,0,40316
49.8761430983,,-97.2662846964,https://winnipegtransit.com/stops/20266,20266,Eastbound Portage at Windham,0,20266
49.8778441819,,-97.2729746096,https://winnipegtransit.com/stops/20264,20264,Eastbound Portage at Woodhaven,0,20264
49.8792418953,,-97.278645716,https://winnipegtransit.com/stops/20262,20262,Eastbound Portage at Sturgeon,0,20262
49.7915643744,,-97.1946095751,https://winnipegtransit.com/stops/62098,62098,Eastbound South Town at Kenaston,0,62098
49.8800294826,,-97.2832251837,https://winnipegtransit.com/stops/20260,20260,Eastbound Portage at Country Club,0,20260
49.8933204977,,-97.0115304624,https://winnipegtransit.com/stops/40081,40081,Eastbound Pandora at Madeline,0,40081
49.792535153,,-97.197449714,https://winnipegtransit.com/stops/62097,62097,Southbound Centre at Park West,0,62097
49.9052828441,,-97.011985645,https://winnipegtransit.com/stops/40083,40083,Northbound Madeline at McMeans,0,40083
49.9055034993,,-97.0117398043,https://winnipegtransit.com/stops/40082,40082,Westbound McMeans at Madeline,0,40082
49.9038171958,,-97.0120180469,https://winnipegtransit.com/stops/40085,40085,Northbound Madeline at Newman,0,40085
49.9041711045,,-97.0121984778,https://winnipegtransit.com/stops/40084,40084,Southbound Madeline at Newman,0,40084
49.8749266577,,-97.2577545104,https://winnipegtransit.com/stops/20269,20269,Eastbound Portage at Rita,0,20269
49.8748384414,,-97.2614599806,https://winnipegtransit.com/stops/20268,20268,Eastbound Portage at Moray,0,20268
49.924075132,,-97.1437277864,https://winnipegtransit.com/stops/30248,30248,Eastbound Mountain at McGregor,0,30248
49.9226153693,,-97.1446894587,https://winnipegtransit.com/stops/30249,30249,Southbound McGregor at Boyd,0,30249
49.9333967324,,-97.1733168164,https://winnipegtransit.com/stops/30538,30538,Eastbound Mountain at Fife West,0,30538
49.8962200871,,-97.0647852481,https://winnipegtransit.com/stops/40778,40778,Northbound Crossroads Station Access at Regent South,0,40778
49.9341765304,,-97.1708625322,https://winnipegtransit.com/stops/30536,30536,Southbound Fife at Admiral,0,30536
49.9271915527,,-97.1411836113,https://winnipegtransit.com/stops/30241,30241,Southbound McGregor at Machray,0,30241
49.936966995,,-97.1298812532,https://winnipegtransit.com/stops/30534,30534,Eastbound Jefferson at Andrews,0,30534
49.9356071245,,-97.1697492226,https://winnipegtransit.com/stops/30535,30535,Southbound Fife at Church,0,30535
49.891022438,,-97.0254647703,https://winnipegtransit.com/stops/40773,40773,Southbound Plessis at Kernaghan,0,40773
49.9240277873,,-97.143019036,https://winnipegtransit.com/stops/30245,30245,Westbound Mountain at McGregor,0,30245
49.9239128756,,-97.1437061538,https://winnipegtransit.com/stops/30246,30246,Southbound McGregor at Mountain,0,30246
49.9241751912,,-97.1432362959,https://winnipegtransit.com/stops/30247,30247,Northbound McGregor at Mountain,0,30247
49.9329179915,,-97.1709101848,https://winnipegtransit.com/stops/30756,30756,Westbound Fife at Fife Loop,0,30756
49.9402762933,,-97.0863379098,https://winnipegtransit.com/stops/40556,40556,Eastbound Edison at Roch West,0,40556
49.9451451742,,-97.1552259152,https://winnipegtransit.com/stops/30754,30754,Eastbound Jefferson at McPhillips West,0,30754
49.947284416,,-97.137148372,https://winnipegtransit.com/stops/30755,30755,Southbound Sinclair at Kingsbury,0,30755
49.944468581,,-97.206057871,https://winnipegtransit.com/stops/30753,30753,Eastbound Kinver at King Edward,0,30753
49.9394180761,,-97.0785113043,https://winnipegtransit.com/stops/40551,40551,Southbound Rothesay at Melmar,0,40551
49.9363608444,,-97.1279954476,https://winnipegtransit.com/stops/30186,30186,Eastbound Jefferson at Powers,0,30186
49.8992294535,,-97.07317343,https://winnipegtransit.com/stops/40229,40229,Westbound Nairn at Panet West,0,40229
49.916411412,,-97.0770439027,https://winnipegtransit.com/stops/40308,40308,Eastbound Concordia at London,0,40308
49.9159709491,,-97.0928307338,https://winnipegtransit.com/stops/40559,40559,Eastbound Munroe at Raleigh West,0,40559
49.9349779573,,-97.1471551514,https://winnipegtransit.com/stops/30759,30759,Westbound Inkster at Sinclair,0,30759
49.9315040651,,-97.0688765188,https://winnipegtransit.com/stops/40795,40795,Southbound Raleigh at Edison South,0,40795
49.8588297168,,-97.0600878411,https://winnipegtransit.com/stops/50089,50089,Westbound Paterson at Peterboro,0,50089
49.8609731554,,-97.06830905,https://winnipegtransit.com/stops/50081,50081,Eastbound Cottonwood at Monaco,0,50081
49.8611122734,,-97.0674825331,https://winnipegtransit.com/stops/50082,50082,Westbound Cottonwood at Westmount,0,50082
49.861134222,,-97.0661040998,https://winnipegtransit.com/stops/50083,50083,Eastbound Cottonwood at Maywood,0,50083
49.9336757703,,-97.0658771584,https://winnipegtransit.com/stops/40799,40799,Northbound Raleigh at Edison,0,40799
49.9314295976,,-97.0687262109,https://winnipegtransit.com/stops/40798,40798,Northbound Raleigh at Edison South,0,40798
49.8590172845,,-97.0653816079,https://winnipegtransit.com/stops/50086,50086,Southbound Westmount at Maywood,0,50086
49.953011204,,-97.1708181554,https://winnipegtransit.com/stops/30599,30599,Westbound Jefferson at Maevista,0,30599
49.9008447282,,-97.1288691886,https://winnipegtransit.com/stops/11119,11119,Northbound Waterfront at George,0,11119
49.898679393,,-97.1329217071,https://winnipegtransit.com/stops/11118,11118,Northbound Waterfront at James,0,11118
49.8828557148,,-97.1106602338,https://winnipegtransit.com/stops/50248,50248,Westbound Goulet at Des Meurons,0,50248
49.8827048471,,-97.1146474903,https://winnipegtransit.com/stops/50249,50249,Westbound Goulet at Braemar,0,50249
49.8917516566,,-97.1123039002,https://winnipegtransit.com/stops/50246,50246,Southbound Des Meurons at De La Cathedrale,0,50246
49.9061971432,,-97.1625896699,https://winnipegtransit.com/stops/11110,11110,Northbound Tecumseh at William,0,11110
49.8860730182,,-97.1692567451,https://winnipegtransit.com/stops/11113,11113,Northbound Arlington at Portage North,0,11113
49.8817873832,,-97.1695719908,https://winnipegtransit.com/stops/11112,11112,Northbound Arlington at Westminster,0,11112
49.8814131179,,-97.1697949519,https://winnipegtransit.com/stops/11115,11115,Southbound Arlington at Westminster,0,11115
49.888094364,,-97.1690967327,https://winnipegtransit.com/stops/11114,11114,Northbound Arlington at St. Paul,0,11114
49.8955420828,,-97.1330428027,https://winnipegtransit.com/stops/11117,11117,Northbound Waterfront at Lombard,0,11117
49.8795443723,,-97.1699352157,https://winnipegtransit.com/stops/11116,11116,Southbound Arlington at Wolseley,0,11116
49.9189222324,,-97.1697960005,https://winnipegtransit.com/stops/30337,30337,Northbound McPhillips at Jarvis (McPhillips Station),0,30337
49.9217872155,,-97.1638360453,https://winnipegtransit.com/stops/30330,30330,Westbound Selkirk at Battery,0,30330
49.9217309119,,-97.1642561455,https://winnipegtransit.com/stops/30331,30331,Eastbound Selkirk at Battery,0,30331
49.9178708123,,-97.1658794322,https://winnipegtransit.com/stops/30332,30332,Westbound Jarvis at Sinclair,0,30332
49.9176980257,,-97.1657606108,https://winnipegtransit.com/stops/30333,30333,Eastbound Jarvis at Sinclair,0,30333
49.9201948246,,-97.1700682369,https://winnipegtransit.com/stops/30338,30338,Southbound McPhillips at Jarvis (McPhillips St Stn),0,30338
49.938662123,,-97.1351534765,https://winnipegtransit.com/stops/30224,30224,Eastbound Jefferson at McKenzie,0,30224
49.8263749477,,-97.1111793139,https://winnipegtransit.com/stops/50880,50880,Westbound St Vital Centre at St. Vital Centre Hub (676 to Creek Bend),0,50880
49.8266860885,,-97.1104024322,https://winnipegtransit.com/stops/50881,50881,Eastbound St Vital Centre Terminal at St. Vital Centre (676 to Bridgwater),0,50881
49.8265061595,,-97.1109517276,https://winnipegtransit.com/stops/50882,50882,Eastbound St Vital Centre at St. Vital Centre Hub (556 to Sage Creek),0,50882
49.8266175768,,-97.1106136732,https://winnipegtransit.com/stops/50883,50883,Eastbound St Vital Centre at St. Vital Centre Hub (552 to South St. Vital),0,50883
49.8264367395,,-97.1111073836,https://winnipegtransit.com/stops/50884,50884,Eastbound St Vital Centre Hub at St. Vital Centre (FX2),0,50884
49.8400363989,,-97.0820647625,https://winnipegtransit.com/stops/50885,50885,Southbound Shorehill at Abinojii Mikanah,0,50885
49.8385082304,,-97.0810403924,https://winnipegtransit.com/stops/50886,50886,Southbound Shorehill at Aubin,0,50886
49.836502674,,-97.0783521714,https://winnipegtransit.com/stops/50887,50887,Southbound Shorehill at Beaudry,0,50887
49.8343756216,,-97.0764755999,https://winnipegtransit.com/stops/50888,50888,Southbound Shorehill at Wildfire,0,50888
49.9509193963,,-97.1693639616,https://winnipegtransit.com/stops/30590,30590,Westbound Jefferson at Sheppard,0,30590
49.9663059537,,-97.189153758,https://winnipegtransit.com/stops/30941,30941,Northbound Ritchie at Leila,0,30941
49.9387684253,,-97.1350518132,https://winnipegtransit.com/stops/30223,30223,Westbound Jefferson at McKenzie,0,30223
49.9349556894,,-97.0964292938,https://winnipegtransit.com/stops/40423,40423,Southbound Henderson at Northdale,0,40423
49.8950560255,,-97.0156921846,https://winnipegtransit.com/stops/40098,40098,Eastbound Regent at Hoka,0,40098
49.938311751,,-97.0926594911,https://winnipegtransit.com/stops/40420,40420,Southbound Henderson at Devon,0,40420
49.9290427159,,-97.1028072693,https://winnipegtransit.com/stops/40427,40427,Southbound Henderson at Dunrobin,0,40427
49.9302564351,,-97.1016727108,https://winnipegtransit.com/stops/40426,40426,Southbound Henderson at Hazel Dell,0,40426
49.9315054137,,-97.1004949031,https://winnipegtransit.com/stops/40425,40425,Southbound Henderson at Greene,0,40425
49.9327184226,,-97.0993184487,https://winnipegtransit.com/stops/40424,40424,Southbound Henderson at Leighton,0,40424
49.9278651695,,-97.1039542841,https://winnipegtransit.com/stops/40428,40428,Southbound Henderson at Kimberly,0,40428
49.9678317224,,-97.1717624537,https://winnipegtransit.com/stops/30946,30946,Westbound Templeton at Barneveld,0,30946
49.8928808785,,-97.1527501445,https://winnipegtransit.com/stops/11025,11025,Eastbound Ellice at Balmoral,0,11025
49.8326803846,,-97.1084165891,https://winnipegtransit.com/stops/50405,50405,Eastbound Abinojii Mikanah at Dakota,0,50405
49.8807570745,,-97.1354506708,https://winnipegtransit.com/stops/11027,11027,Southbound Southwest Transitway at Harkness Station,0,11027
49.8382966867,,-97.0932740157,https://winnipegtransit.com/stops/50407,50407,Westbound Abinojii Mikanah at St. Anne's,0,50407
49.8232016276,,-97.1384986408,https://winnipegtransit.com/stops/50400,50400,Westbound Abinojii Mikanah at River,0,50400
49.8293314763,,-97.1154165715,https://winnipegtransit.com/stops/51034,51034,Northbound Avalon at Avalon Loop,0,51034
49.883292092,,-97.2012965675,https://winnipegtransit.com/stops/11023,11023,Northbound St James at Ness,0,11023
49.8304966418,,-97.1146064601,https://winnipegtransit.com/stops/50403,50403,Eastbound Abinojii Mikanah at St. Mary's,0,50403
49.9666290543,,-97.1679452596,https://winnipegtransit.com/stops/30944,30944,Westbound Templeton at Novara,0,30944
49.8732830551,,-97.1410970221,https://winnipegtransit.com/stops/11029,11029,Southbound Southwest Transitway at Osborne Station,0,11029
49.8809191336,,-97.1349015351,https://winnipegtransit.com/stops/11028,11028,Northbound Southwest Transitway at Harkness Station,0,11028
49.8898674514,,-96.9680930852,https://winnipegtransit.com/stops/41007,41007,Northbound Ravenhurst at Renshaw,0,41007
49.9336510828,,-97.2126748052,https://winnipegtransit.com/stops/30713,30713,Eastbound Manitoba at Walsall,0,30713
49.9694736786,,-97.1772088299,https://winnipegtransit.com/stops/30949,30949,Eastbound Templeton at Strasbourg,0,30949
49.9694585469,,-97.1768189191,https://winnipegtransit.com/stops/30948,30948,Westbound Templeton at Bitterfield,0,30948
49.8951976692,,-97.0124140931,https://winnipegtransit.com/stops/40092,40092,Westbound Regent at Madeline,0,40092
49.8723357735,,-97.3000878434,https://winnipegtransit.com/stops/20378,20378,Southbound Rouge at Browning,0,20378
49.8965683969,,-97.0598001145,https://winnipegtransit.com/stops/47020,47020,Eastbound Regent at Kildonan Place Hub,0,47020
49.8770788149,,-97.2347523514,https://winnipegtransit.com/stops/20279,20279,Eastbound Portage at Woodlawn,0,20279
49.9442843379,,-97.199402116,https://winnipegtransit.com/stops/30650,30650,Northbound Dexter at Kinver,0,30650
49.8303902043,,-97.1003988361,https://winnipegtransit.com/stops/50661,50661,Eastbound Meadowood at Brentford,0,50661
49.831550257,,-97.0976416792,https://winnipegtransit.com/stops/50662,50662,Eastbound Meadowood at Ashworth,0,50662
49.8304291275,,-97.1005780872,https://winnipegtransit.com/stops/50665,50665,Westbound Meadowood at Brentford,0,50665
49.8074104575,,-97.2152718411,https://winnipegtransit.com/stops/60938,60938,Southbound Scurfield at Izatt School,0,60938
49.8263591536,,-97.0932150758,https://winnipegtransit.com/stops/50668,50668,Southbound Ashworth at Whitley,0,50668
49.8246063994,,-97.0916572038,https://winnipegtransit.com/stops/50669,50669,Southbound Ashworth at Novavista,0,50669
49.8065490459,,-97.2084235867,https://winnipegtransit.com/stops/60935,60935,Eastbound Scurfield at Sheffield,0,60935
49.8044820806,,-97.2097090418,https://winnipegtransit.com/stops/60934,60934,Eastbound Scurfield at Beacon Hill,0,60934
49.803510683,,-97.2132054746,https://winnipegtransit.com/stops/60933,60933,Eastbound Scurfield at Vineland,0,60933
49.869393539,,-97.2110815929,https://winnipegtransit.com/stops/60932,60932,Southbound Edgeland at Tuxedo,0,60932
49.8668130178,,-97.2111490948,https://winnipegtransit.com/stops/60931,60931,Northbound Edgeland at Corydon,0,60931
49.8096069347,,-97.2124667048,https://winnipegtransit.com/stops/60930,60930,Southbound Scurfield at Fleetwood West,0,60930
49.8674657548,,-97.0806305877,https://winnipegtransit.com/stops/50066,50066,Southbound De Bourmont at Autumnwood,0,50066
49.8693465734,,-97.0806812819,https://winnipegtransit.com/stops/50067,50067,Northbound De Bourmont at Fontaine,0,50067
49.8501497473,,-97.1200602347,https://winnipegtransit.com/stops/51049,51049,Eastbound Fermor at Dunkirk,0,51049
49.8673327551,,-97.0802044487,https://winnipegtransit.com/stops/50065,50065,Northbound Autumnwood at De Bourmont,0,50065
49.8652407434,,-97.0777268661,https://winnipegtransit.com/stops/50062,50062,Eastbound Betournay at Autumnwood,0,50062
49.8656796154,,-97.0781547565,https://winnipegtransit.com/stops/50063,50063,Northbound Autumnwood at Betournay,0,50063
49.8221066073,,-97.0347511386,https://winnipegtransit.com/stops/51043,51043,Westbound Robert Bockstael at Snowy Owl,0,51043
49.8247532074,,-97.0332812596,https://winnipegtransit.com/stops/51042,51042,Westbound Robert Bockstael at Sage Creek,0,51042
49.90083741,,-97.0165969306,https://winnipegtransit.com/stops/40095,40095,Westbound Kildare at Hoka,0,40095
49.8233835761,,-97.045349792,https://winnipegtransit.com/stops/51047,51047,Northbound Des Hivernants at Butterfly,0,51047
49.8691962941,,-97.0808403264,https://winnipegtransit.com/stops/50068,50068,Southbound De Bourmont at Fontaine,0,50068
49.8755931175,,-97.299555908,https://winnipegtransit.com/stops/20379,20379,Northbound Rouge at Sansome,0,20379
49.8735582598,,-97.1753529846,https://winnipegtransit.com/stops/60333,60333,Westbound Academy at Oxford,0,60333
49.7908341116,,-97.1973878155,https://winnipegtransit.com/stops/61228,61228,Eastbound South Town at Centre,0,61228
49.8737609467,,-97.1808012796,https://winnipegtransit.com/stops/60337,60337,Westbound Academy at Oak,0,60337
49.8764493351,,-97.1483942687,https://winnipegtransit.com/stops/10184,10184,Eastbound Stradbrook at Nassau,0,10184
49.7930279168,,-97.2060046335,https://winnipegtransit.com/stops/61224,61224,Westbound Bridge Lake at Red Spruce,0,61224
49.7914107831,,-97.2038134713,https://winnipegtransit.com/stops/61225,61225,Westbound Bridge Lake at Bankfield,0,61225
49.7902134047,,-97.2020098381,https://winnipegtransit.com/stops/61226,61226,Westbound Bridge Lake at Willow Creek,0,61226
49.8000573126,,-97.2027986733,https://winnipegtransit.com/stops/61220,61220,Westbound Bridge Lake at Rose Garden,0,61220
49.7988071069,,-97.205124013,https://winnipegtransit.com/stops/61221,61221,Westbound Bridge Lake at Sablewood,0,61221
49.7974977487,,-97.2071179053,https://winnipegtransit.com/stops/61222,61222,Westbound Bridge Lake at Water Bend,0,61222
49.7951023786,,-97.2075259681,https://winnipegtransit.com/stops/61223,61223,Westbound Bridge Lake at Lake Bend,0,61223
49.8818064219,,-97.0873006311,https://winnipegtransit.com/stops/50031,50031,Eastbound Marion at Panet West,0,50031
49.8776657066,,-97.1445895102,https://winnipegtransit.com/stops/10186,10186,Northbound Osborne at Stradbrook,0,10186
49.8819665942,,-97.0877397626,https://winnipegtransit.com/stops/50030,50030,Westbound Marion at Panet West,0,50030
49.8730980907,,-97.1520158767,https://winnipegtransit.com/stops/10181,10181,Eastbound Wellington at Hugo,0,10181
49.819538929,,-97.1790959316,https://winnipegtransit.com/stops/60809,60809,Northbound Waverley at Scurfield,0,60809
49.8560275551,,-97.1594846178,https://winnipegtransit.com/stops/60808,60808,Westbound Taylor at Wilton,0,60808
49.7772053101,,-97.1664038464,https://winnipegtransit.com/stops/60803,60803,Northbound Bairdmore at Point West,0,60803
49.8458867085,,-97.1234249861,https://winnipegtransit.com/stops/60800,60800,Northbound North at Wildwood A,0,60800
49.8527527577,,-97.3073832391,https://winnipegtransit.com/stops/60807,60807,Northbound Charleswood at West Park,0,60807
49.7681060092,,-97.1564562719,https://winnipegtransit.com/stops/60805,60805,Southbound Pembina at Ducharme,0,60805
49.778500383,,-97.1686608479,https://winnipegtransit.com/stops/60804,60804,Northbound Bairdmore at Millstream,0,60804
49.8683800065,,-97.2602584714,https://winnipegtransit.com/stops/60489,60489,Westbound Roblin at Princeton,0,60489
49.8685535234,,-97.2580394982,https://winnipegtransit.com/stops/60487,60487,Westbound Roblin at McLean,0,60487
49.8683141171,,-97.2570739537,https://winnipegtransit.com/stops/60486,60486,Eastbound Roblin at McLean,0,60486
49.8680726423,,-97.252392797,https://winnipegtransit.com/stops/60483,60483,Eastbound Roblin at Wexford,0,60483
49.8682752525,,-97.2527055647,https://winnipegtransit.com/stops/60482,60482,Westbound Roblin at Wexford,0,60482
49.8679200533,,-97.2500325119,https://winnipegtransit.com/stops/60481,60481,Eastbound Roblin at Chalfont,0,60481
49.8681236707,,-97.2498164059,https://winnipegtransit.com/stops/60480,60480,Westbound Roblin at Chalfont,0,60480
49.8456485529,,-97.1533549908,https://winnipegtransit.com/stops/60249,60249,Southbound Pembina at North Drive,0,60249
49.8413273268,,-97.1531301916,https://winnipegtransit.com/stops/60245,60245,Northbound Pembina at Oakenwald,0,60245
49.8699827687,,-97.3003374571,https://winnipegtransit.com/stops/20376,20376,Southbound Rouge at Erlandson,0,20376
49.8363110077,,-97.1504980999,https://winnipegtransit.com/stops/60240,60240,Northbound Pembina at Fletcher,0,60240
49.8392961235,,-97.1521088304,https://winnipegtransit.com/stops/60243,60243,Southbound Pembina at Waller,0,60243
49.8395335158,,-97.1517659783,https://winnipegtransit.com/stops/60242,60242,Northbound Pembina at Waller,0,60242
49.9007993125,,-97.1836280277,https://winnipegtransit.com/stops/10256,10256,Westbound Wellington at Erin,0,10256
49.9404294826,,-97.1215101279,https://winnipegtransit.com/stops/30132,30132,Southbound Salter at Burrin,0,30132
49.9427732657,,-97.1196069968,https://winnipegtransit.com/stops/30130,30130,Northbound Salter at Partridge,0,30130
49.94091395,,-97.1208780282,https://winnipegtransit.com/stops/30131,30131,Northbound Salter at Burrin,0,30131
49.9376139713,,-97.1237240686,https://winnipegtransit.com/stops/30136,30136,Southbound Salter at Hartford,0,30136
49.7953003985,,-97.1571468344,https://winnipegtransit.com/stops/60069,60069,Northbound Pembina at Dalhousie North,0,60069
49.7951128613,,-97.1566676055,https://winnipegtransit.com/stops/60068,60068,Eastbound Dalhousie at Pembina East,0,60068
49.8442930052,,-97.1277709193,https://winnipegtransit.com/stops/60799,60799,Eastbound South at Wildwood J,0,60799
49.9008807751,,-97.0212325867,https://winnipegtransit.com/stops/40109,40109,Westbound Kildare at Brewster,0,40109
49.7898861731,,-97.1543789827,https://winnipegtransit.com/stops/60061,60061,Northbound Baylor at Killarney,0,60061
49.7902510772,,-97.1546985746,https://winnipegtransit.com/stops/60060,60060,Westbound Killarney at Baylor,0,60060
49.7895919902,,-97.1562380768,https://winnipegtransit.com/stops/60063,60063,Eastbound Killarney at Pembina East,0,60063
49.7897892799,,-97.1545077129,https://winnipegtransit.com/stops/60062,60062,Southbound Baylor at Killarney,0,60062
49.7923312172,,-97.1576624891,https://winnipegtransit.com/stops/60065,60065,Southbound Pembina at Greencrest,0,60065
49.789624491,,-97.1565841948,https://winnipegtransit.com/stops/60064,60064,Westbound Killarney at Pembina East,0,60064
49.8445111967,,-97.1368317149,https://winnipegtransit.com/stops/60795,60795,Eastbound South at Point Road,0,60795
49.7925944952,,-97.1572495455,https://winnipegtransit.com/stops/60066,60066,Northbound Pembina at Greencrest,0,60066
49.910505829,,-97.0180946465,https://winnipegtransit.com/stops/40622,40622,Eastbound Devonshire at Clouston,0,40622
49.9217482215,,-97.041792105,https://winnipegtransit.com/stops/40767,40767,Northbound McLellan at Williamson,0,40767
49.8946630681,,-97.2124169507,https://winnipegtransit.com/stops/20099,20099,Westbound Ellice at Marjorie,0,20099
49.8805553928,,-97.1424881453,https://winnipegtransit.com/stops/10169,10169,Westbound River at Bryce,0,10169
49.9347087097,,-97.0701001893,https://winnipegtransit.com/stops/40541,40541,Eastbound Edison at De Graff,0,40541
49.8942167539,,-97.2033410396,https://winnipegtransit.com/stops/20090,20090,Eastbound Ellice at Century,0,20090
49.8819480726,,-97.1373536716,https://winnipegtransit.com/stops/10166,10166,Southbound Donald at River,0,10166
49.8945134756,,-97.2073958673,https://winnipegtransit.com/stops/20093,20093,Westbound Ellice at King Edward,0,20093
49.8943613533,,-97.2080280883,https://winnipegtransit.com/stops/20094,20094,Eastbound Ellice at King Edward,0,20094
49.934814721,,-97.0699844663,https://winnipegtransit.com/stops/40542,40542,Westbound Edison at De Graff,0,40542
49.8948568102,,-97.2098198851,https://winnipegtransit.com/stops/20096,20096,Northbound Berry at Ellice,0,20096
49.8946710363,,-97.2100216983,https://winnipegtransit.com/stops/20097,20097,Southbound Berry at Ellice,0,20097
49.84389565,,-97.1265622182,https://winnipegtransit.com/stops/60667,60667,Westbound South at Wildwood J,0,60667
49.8462265328,,-97.140577195,https://winnipegtransit.com/stops/60666,60666,Westbound Point at Oakenwald,0,60666
49.8523347171,,-97.2567863271,https://winnipegtransit.com/stops/60665,60665,Westbound Eldridge at Elmhurst,0,60665
49.9127507569,,-97.0657254799,https://winnipegtransit.com/stops/40235,40235,Westbound Concordia at Concordia Hospital,0,40235
49.8907944555,,-97.20075313,https://winnipegtransit.com/stops/10369,10369,Northbound St James at St. Matthews,0,10369
49.9040454169,,-97.1315585975,https://winnipegtransit.com/stops/10368,10368,Eastbound Higgins at Maple,0,10368
49.7853386472,,-97.1529402439,https://winnipegtransit.com/stops/60661,60661,Southbound Baylor at Leeds,0,60661
49.9261227376,,-97.151396056,https://winnipegtransit.com/stops/30305,30305,Southbound Arlington at Mountain,0,30305
49.8668996995,,-97.2208593839,https://winnipegtransit.com/stops/60465,60465,Westbound Corydon at Park,0,60465
49.8666274368,,-97.220702394,https://winnipegtransit.com/stops/60466,60466,Eastbound Corydon at Park,0,60466
49.8663296206,,-97.2136300871,https://winnipegtransit.com/stops/60461,60461,Eastbound Corydon at Southport,0,60461
49.899019274,,-97.0735160181,https://winnipegtransit.com/stops/40230,40230,Eastbound Nairn at Panet West,0,40230
49.8667727937,,-97.2178720774,https://winnipegtransit.com/stops/60463,60463,Westbound Corydon at Handsart,0,60463
49.8664412269,,-97.2167849124,https://winnipegtransit.com/stops/60462,60462,Eastbound Corydon at Handsart,0,60462
49.9547358554,,-97.096987767,https://winnipegtransit.com/stops/30988,30988,Eastbound Ridgecrest at Main,0,30988
49.8945090061,,-97.1375941235,https://winnipegtransit.com/stops/10761,10761,Westbound Pioneer at Portage and Main Junction,0,10761
49.9372011242,,-97.0766344374,https://winnipegtransit.com/stops/40548,40548,Westbound Edison at De Fehr,0,40548
49.8951133479,,-97.1371391998,https://winnipegtransit.com/stops/10763,10763,Eastbound Portage at Portage and Main Junction,0,10763
49.8960981028,,-97.1430053406,https://winnipegtransit.com/stops/10765,10765,Northbound King at Notre Dame,0,10765
49.897648486,,-97.1471372803,https://winnipegtransit.com/stops/10767,10767,Westbound Notre Dame at Dagmar,0,10767
49.9383373723,,-97.0800594892,https://winnipegtransit.com/stops/40549,40549,Westbound Edison at Rothesay,0,40549
49.8993993977,,-97.1525708249,https://winnipegtransit.com/stops/10769,10769,Westbound Notre Dame at Isabel,0,10769
49.9608156392,,-97.1189598723,https://winnipegtransit.com/stops/30985,30985,Eastbound North Point at Lynx,0,30985
49.8823464441,,-97.2988175085,https://winnipegtransit.com/stops/20386,20386,Northbound Rouge at Portage,0,20386
49.881990104,,-97.2990527601,https://winnipegtransit.com/stops/20387,20387,Southbound Rouge at Portage,0,20387
49.8755869874,,-97.2997509833,https://winnipegtransit.com/stops/20380,20380,Southbound Rouge at Sansome,0,20380
49.8786197751,,-97.2992407936,https://winnipegtransit.com/stops/20382,20382,Northbound Rouge at Ericsson,0,20382
49.8785597041,,-97.2994377762,https://winnipegtransit.com/stops/20383,20383,Southbound Rouge at Allard,0,20383
49.8932806749,,-97.0408421821,https://winnipegtransit.com/stops/40166,40166,Southbound Bournais at Pandora,0,40166
49.893312862,,-97.0406180943,https://winnipegtransit.com/stops/40164,40164,Northbound Bournais at Pandora,0,40164
49.8669999314,,-97.3042551641,https://winnipegtransit.com/stops/20388,20388,Westbound Assiniboine at Maureen,0,20388
49.8936724511,,-97.0347693205,https://winnipegtransit.com/stops/40160,40160,Westbound Pandora at Heartstone,0,40160
49.8935409355,,-97.0344404852,https://winnipegtransit.com/stops/40161,40161,Eastbound Pandora at Heartstone,0,40161
49.8937302491,,-97.1819719548,https://winnipegtransit.com/stops/10509,10509,Westbound Ellice at Wall,0,10509
49.8935539815,,-97.1816304817,https://winnipegtransit.com/stops/10508,10508,Eastbound Ellice at Wall,0,10508
49.918926176,,-97.1952620883,https://winnipegtransit.com/stops/20478,20478,Southbound Keewatin at Ross,0,20478
49.9167408086,,-97.1952879606,https://winnipegtransit.com/stops/20479,20479,Southbound Keewatin at Notre Dame,0,20479
49.9115041293,,-97.0471937562,https://winnipegtransit.com/stops/40896,40896,Northbound Peguis at Prairie Crocus North,0,40896
49.9111748254,,-97.0474020662,https://winnipegtransit.com/stops/40897,40897,Southbound Peguis at Prairie Crocus North,0,40897
49.9001569353,,-97.0512030943,https://winnipegtransit.com/stops/40894,40894,Southbound Peguis at Almey,0,40894
49.8974605741,,-97.0534701409,https://winnipegtransit.com/stops/40895,40895,Southbound Peguis at Regent,0,40895
49.8937599823,,-97.1884593963,https://winnipegtransit.com/stops/10501,10501,Eastbound Ellice at Valour,0,10501
49.882839881,,-97.2540173221,https://winnipegtransit.com/stops/20473,20473,Northbound Whytewold at Bruce,0,20473
49.8757249994,,-97.2546219164,https://winnipegtransit.com/stops/20470,20470,Northbound Whytewold at Portage,0,20470
49.8796507196,,-97.2542854829,https://winnipegtransit.com/stops/20471,20471,Northbound Whytewold at Lodge,0,20471
49.8795232424,,-97.2030374095,https://winnipegtransit.com/stops/20476,20476,Northbound Kintyre at Portage,0,20476
49.9208692547,,-97.1952731221,https://winnipegtransit.com/stops/20477,20477,Southbound Keewatin at Alexander,0,20477
49.8936134983,,-97.1837029068,https://winnipegtransit.com/stops/10507,10507,Eastbound Ellice at Erin,0,10507
49.8798334574,,-97.2544737699,https://winnipegtransit.com/stops/20475,20475,Southbound Whytewold at Lodge,0,20475
49.8973377223,,-97.0595464524,https://winnipegtransit.com/stops/40786,40786,"Northbound Kildonan Place at Kildonan Place Hub (48, 440)",0,40786
49.9386929083,,-97.1606987217,https://winnipegtransit.com/stops/30439,30439,Southbound McPhillips at Inkster,0,30439
49.8972393094,,-97.0595782508,https://winnipegtransit.com/stops/40787,40787,Southbound Kildonan Place at Kildonan Place Hub (D17),0,40787
49.9420025933,,-97.1578408457,https://winnipegtransit.com/stops/30437,30437,Southbound McPhillips at Mapleglen,0,30437
49.9419332401,,-97.1574392928,https://winnipegtransit.com/stops/30436,30436,Northbound McPhillips at Mapleglen,0,30436
49.8611042586,,-97.1394494842,https://winnipegtransit.com/stops/10040,10040,Northbound Daly at Kylemore,0,10040
49.9065534329,,-97.1281190375,https://winnipegtransit.com/stops/30434,30434,Eastbound Euclid at Argyle,0,30434
49.9363192408,,-97.1466577413,https://winnipegtransit.com/stops/30432,30432,Southbound Sinclair at Carruthers,0,30432
49.9365557131,,-97.1462584506,https://winnipegtransit.com/stops/30431,30431,Northbound Sinclair at Dahlia,0,30431
49.9381103508,,-97.1450420313,https://winnipegtransit.com/stops/30430,30430,Northbound Sinclair at Primrose South,0,30430
49.895787535,,-97.3149984334,https://winnipegtransit.com/stops/20400,20400,Eastbound Lumsden at Buchanan,0,20400
49.9373384887,,-97.1306055088,https://winnipegtransit.com/stops/30187,30187,Westbound Jefferson at Andrews,0,30187
49.8701154214,,-97.155066248,https://winnipegtransit.com/stops/10141,10141,Eastbound Corydon at Arbuthnot,0,10141
49.9363156538,,-97.127425811,https://winnipegtransit.com/stops/30185,30185,Westbound Jefferson at Powers,0,30185
49.8941560894,,-97.0650766836,https://winnipegtransit.com/stops/40780,40780,Northbound Crossroads Station Access at Wal-Mart,0,40780
49.9119373647,,-97.1440685125,https://winnipegtransit.com/stops/30181,30181,Eastbound Dufferin at Salter,0,30181
49.912161878,,-97.1440459642,https://winnipegtransit.com/stops/30180,30180,Westbound Dufferin at Salter,0,30180
49.9236611667,,-97.0705414334,https://winnipegtransit.com/stops/40300,40300,Southbound London at Reay,0,40300
49.9233887706,,-97.070928491,https://winnipegtransit.com/stops/40301,40301,Northbound London at Reay,0,40301
49.9187960683,,-97.0771022716,https://winnipegtransit.com/stops/40307,40307,Southbound London at Kimberly,0,40307
49.9218524515,,-97.074821172,https://winnipegtransit.com/stops/40304,40304,Southbound London at Antrim,0,40304
49.9214852881,,-97.0749193911,https://winnipegtransit.com/stops/40305,40305,Northbound London at Antrim,0,40305
49.9270482865,,-97.0692218148,https://winnipegtransit.com/stops/41012,41012,Westbound Tu-Pelo at Budden,0,41012
49.8856108907,,-97.1526239561,https://winnipegtransit.com/stops/10214,10214,Westbound Broadway at Balmoral,0,10214
49.8752150821,,-97.2548073233,https://winnipegtransit.com/stops/20272,20272,Eastbound Portage at Whytewold,0,20272
49.8934725634,,-97.0156735944,https://winnipegtransit.com/stops/40099,40099,Westbound Pandora at Hoka,0,40099
49.8854539632,,-97.1529362222,https://winnipegtransit.com/stops/10211,10211,Eastbound Broadway at Balmoral,0,10211
49.8756915513,,-97.2488329602,https://winnipegtransit.com/stops/20275,20275,Eastbound Portage at Mount Royal West,0,20275
49.8759130226,,-97.2456375597,https://winnipegtransit.com/stops/20276,20276,Eastbound Portage at Mount Royal,0,20276
49.8763775808,,-97.2412780371,https://winnipegtransit.com/stops/20277,20277,Eastbound Portage at Conway,0,20277
49.8767118026,,-97.2384125058,https://winnipegtransit.com/stops/20278,20278,Eastbound Portage at Sharp,0,20278
49.8950341982,,-97.0123233383,https://winnipegtransit.com/stops/40093,40093,Eastbound Regent at Madeline,0,40093
49.9008233082,,-97.0126285364,https://winnipegtransit.com/stops/40090,40090,Westbound Kildare at Madeline,0,40090
49.9006950756,,-97.0124945441,https://winnipegtransit.com/stops/40091,40091,Eastbound Kildare at Madeline,0,40091
49.9007157099,,-97.015794203,https://winnipegtransit.com/stops/40096,40096,Eastbound Kildare at Hoka,0,40096
49.8952165422,,-97.016660322,https://winnipegtransit.com/stops/40097,40097,Westbound Regent at Hoka,0,40097
49.89345002,,-97.0122631155,https://winnipegtransit.com/stops/40094,40094,Westbound Pandora at Madeline,0,40094
49.8709136281,,-97.1532265679,https://winnipegtransit.com/stops/10144,10144,Westbound Corydon at Cockburn,0,10144
49.8769839108,,-97.1441423924,https://winnipegtransit.com/stops/10185,10185,Southbound Osborne at Wardlaw,0,10185
49.9013561591,,-97.2066548447,https://winnipegtransit.com/stops/20077,20077,Eastbound Wellington at King Edward,0,20077
49.8780298845,,-97.143740382,https://winnipegtransit.com/stops/10187,10187,Eastbound Stradbrook at Osborne,0,10187
49.9014195879,,-97.2095909044,https://winnipegtransit.com/stops/20075,20075,Eastbound Wellington at Berry,0,20075
49.9054073249,,-97.2243872137,https://winnipegtransit.com/stops/20072,20072,Westbound Wellington at Airport Terminal (D13),0,20072
49.9015008857,,-97.2119414128,https://winnipegtransit.com/stops/20073,20073,Eastbound Wellington at Berry West,0,20073
49.9053390589,,-97.2240415396,https://winnipegtransit.com/stops/20070,20070,Westbound Wellington at Airport Terminal,0,20070
49.8786147522,,-97.1270004477,https://winnipegtransit.com/stops/51086,51086,Northbound Ferndale at Walmer,0,51086
49.8790855804,,-97.1405818642,https://winnipegtransit.com/stops/10188,10188,Eastbound Stradbrook at Scott,0,10188
49.9015173286,,-97.20660709,https://winnipegtransit.com/stops/20078,20078,Westbound Wellington at King Edward,0,20078
49.9043706505,,-97.0477046843,https://winnipegtransit.com/stops/40769,40769,Southbound Peguis at Ravelston,0,40769
49.8775446198,,-97.123130517,https://winnipegtransit.com/stops/51084,51084,Southbound Tache at St. Mary's,0,51084
49.9256705209,,-97.2078844178,https://winnipegtransit.com/stops/20529,20529,Westbound Logan at King Edward,0,20529
49.8080787908,,-97.098548151,https://winnipegtransit.com/stops/50628,50628,Westbound Burland at John Forsyth,0,50628
49.9231694596,,-97.1693286409,https://winnipegtransit.com/stops/30500,30500,Northbound McPhillips at Selkirk,0,30500
49.9492697253,,-97.1611879814,https://winnipegtransit.com/stops/30507,30507,Southbound Pipeline at Blechner,0,30507
49.9520941942,,-97.1611919279,https://winnipegtransit.com/stops/30505,30505,Southbound Pipeline at Doubleday,0,30505
49.9553773465,,-97.1611923391,https://winnipegtransit.com/stops/30504,30504,Southbound Pipeline at Adsum,0,30504
49.9397514053,,-97.2145396428,https://winnipegtransit.com/stops/30763,30763,Westbound Burrows at Cutler,0,30763
49.9306753065,,-97.1735729939,https://winnipegtransit.com/stops/30762,30762,Southbound Fife at Redwood,0,30762
49.9173087484,,-97.1610667857,https://winnipegtransit.com/stops/30761,30761,Northbound Sinclair at Dufferin,0,30761
49.9050566474,,-97.1223414478,https://winnipegtransit.com/stops/30760,30760,Westbound Sutherland at Annabella,0,30760
49.948419879,,-97.2050607463,https://winnipegtransit.com/stops/30767,30767,Eastbound Garton at Forest Cove,0,30767
49.936290061,,-97.074315471,https://winnipegtransit.com/stops/40545,40545,Eastbound Edison at MacAulay,0,40545
49.9556607902,,-97.1023747088,https://winnipegtransit.com/stops/30989,30989,Westbound Murray at Donan,0,30989
49.9411885779,,-97.2167444005,https://winnipegtransit.com/stops/30764,30764,Westbound Burrows at Haddon,0,30764
49.9555999208,,-97.1025025788,https://winnipegtransit.com/stops/30987,30987,Eastbound Murray at Frog Plain,0,30987
49.9574286249,,-97.1065158179,https://winnipegtransit.com/stops/30986,30986,Eastbound Murray at Danford,0,30986
49.9503349354,,-97.1997898402,https://winnipegtransit.com/stops/30769,30769,Eastbound Garton at Inkster Garden,0,30769
49.9491554262,,-97.2014508476,https://winnipegtransit.com/stops/30768,30768,Eastbound Garton at Rose Hill,0,30768
49.9638841714,,-97.128475747,https://winnipegtransit.com/stops/30983,30983,Eastbound North Point at Phoenix,0,30983
49.9653231959,,-97.1312507024,https://winnipegtransit.com/stops/30982,30982,Eastbound North Point at Atlas,0,30982
49.9566289233,,-97.1950100018,https://winnipegtransit.com/stops/30980,30980,Northbound Dr. Jose Rizal at Waterford Green,0,30980
49.9219418826,,-97.1543284744,https://winnipegtransit.com/stops/30293,30293,Northbound Arlington at Burrows,0,30293
49.9232212731,,-97.1533322033,https://winnipegtransit.com/stops/30292,30292,Northbound Arlington at Aberdeen,0,30292
49.8969620488,,-97.0596729239,https://winnipegtransit.com/stops/40784,40784,"Northbound Kildonan Place at Kildonan Place Hub (442, 444)",0,40784
49.8971584081,,-97.0595814963,https://winnipegtransit.com/stops/40785,40785,"Northbound Kildonan Place at Kildonan Place Hub (38, 446)",0,40785
49.9170813784,,-97.1580803352,https://winnipegtransit.com/stops/30297,30297,Northbound Arlington at Dufferin,0,30297
49.919345563,,-97.1562247676,https://winnipegtransit.com/stops/30296,30296,Westbound Selkirk at Arlington,0,30296
49.9196139181,,-97.1561309417,https://winnipegtransit.com/stops/30295,30295,Northbound Arlington at Selkirk,0,30295
49.920653493,,-97.1553250352,https://winnipegtransit.com/stops/30294,30294,Northbound Arlington at Manitoba,0,30294
49.8792872505,,-97.2075422513,https://winnipegtransit.com/stops/20201,20201,Westbound Portage at Queen,0,20201
49.9009788998,,-97.1066936191,https://winnipegtransit.com/stops/50626,50626,Northbound Archibald at Mission North,0,50626
49.8970964179,,-97.0596396835,https://winnipegtransit.com/stops/40788,40788,Southbound Kildonan Place at Kildonan Place Hub (D10),0,40788
49.8969445372,,-97.0597014765,https://winnipegtransit.com/stops/40789,40789,Southbound Kildonan Place at Kildonan Place Hub (F9),0,40789
49.8862677417,,-97.1639451669,https://winnipegtransit.com/stops/11108,11108,Eastbound Broadway at Portage,0,11108
49.8859255911,,-97.1610902746,https://winnipegtransit.com/stops/11109,11109,Westbound Broadway at Maryland,0,11109
49.9041662712,,-97.1559261775,https://winnipegtransit.com/stops/11102,11102,Eastbound William at Sherbrook,0,11102
49.9044026594,,-97.1560842878,https://winnipegtransit.com/stops/11103,11103,Westbound William at Sherbrook,0,11103
49.8853632775,,-97.1693114395,https://winnipegtransit.com/stops/11100,11100,Northbound Arlington at Portage South,0,11100
49.8749255304,,-97.1174975972,https://winnipegtransit.com/stops/50270,50270,Northbound St Mary's at Niverville,0,50270
49.8942712449,,-97.1480046177,https://winnipegtransit.com/stops/11106,11106,Westbound Ellice at Edmonton,0,11106
49.8843722181,,-97.1852052397,https://winnipegtransit.com/stops/11107,11107,Southbound Erin at Portage,0,11107
49.8719405763,,-97.113716694,https://winnipegtransit.com/stops/50275,50275,Northbound St Mary's at Carriere,0,50275
49.8950774135,,-97.1444230373,https://winnipegtransit.com/stops/11105,11105,Westbound Ellice at Donald,0,11105
49.9559600023,,-97.1413447111,https://winnipegtransit.com/stops/30341,30341,Eastbound Templeton at Meredith,0,30341
49.9579929763,,-97.1838747276,https://winnipegtransit.com/stops/30616,30616,Southbound Mandalay at Playgreen,0,30616
49.9550226097,,-97.1384251692,https://winnipegtransit.com/stops/30343,30343,Eastbound Templeton at Garden Park,0,30343
49.9559939643,,-97.1373002345,https://winnipegtransit.com/stops/30345,30345,Southbound Garden Park at Beecher,0,30345
49.9560171223,,-97.1370623273,https://winnipegtransit.com/stops/30344,30344,Northbound Garden Park at Beecher,0,30344
49.9544216207,,-97.1323837881,https://winnipegtransit.com/stops/30347,30347,Southbound Sinclair at Beecher,0,30347
49.9598710838,,-97.178603308,https://winnipegtransit.com/stops/30610,30610,Westbound Jefferson at Idlewild,0,30610
49.9517582885,,-97.1340063651,https://winnipegtransit.com/stops/30349,30349,Northbound Sinclair at Ambassador,0,30349
49.9512640877,,-97.1345970315,https://winnipegtransit.com/stops/30348,30348,Southbound Sinclair at Ambassador,0,30348
49.8243044703,,-97.0837298351,https://winnipegtransit.com/stops/51088,51088,Southbound St Anne's at Compark,0,51088
49.8742141766,,-97.1168989314,https://winnipegtransit.com/stops/50271,50271,Southbound St Mary's at Niverville,0,50271
49.9549980161,,-97.1816033934,https://winnipegtransit.com/stops/30619,30619,Westbound Adsum at Citadel,0,30619
49.9564838173,,-97.1840012205,https://winnipegtransit.com/stops/30618,30618,Southbound Mandalay at Anglia,0,30618
49.8264430067,,-97.1109402831,https://winnipegtransit.com/stops/50879,50879,Westbound St Vital Centre at St. Vital Centre Hub (556 to Plaza Drive),0,50879
49.8265207352,,-97.110742589,https://winnipegtransit.com/stops/50878,50878,Westbound St Vital Centre at St Vital Centre Hub (552 to Avalon Loop),0,50878
49.8775780605,,-97.0325276133,https://winnipegtransit.com/stops/50874,50874,Northbound De Baets at Camiel Sys North,0,50874
49.8815948404,,-97.0365265933,https://winnipegtransit.com/stops/50876,50876,Northbound De Baets at Paquin,0,50876
49.8843237278,,-97.0489590746,https://winnipegtransit.com/stops/50871,50871,Westbound De Baets at Mazenod,0,50871
49.8837986759,,-97.0444975947,https://winnipegtransit.com/stops/50870,50870,Westbound De Baets at Beghin,0,50870
49.8822760303,,-97.0496819882,https://winnipegtransit.com/stops/50872,50872,Southbound Mazenod at Waters Business Park,0,50872
49.8899395966,,-97.1192386109,https://winnipegtransit.com/stops/50181,50181,Southbound Aulneau at De La Cathedrale,0,50181
49.8896098748,,-97.1188755113,https://winnipegtransit.com/stops/50182,50182,Northbound Aulneau at De La Cathedrale,0,50182
49.9143881804,,-97.1209064043,https://winnipegtransit.com/stops/40438,40438,Westbound Hespeler at Beatrice,0,40438
49.8949230308,,-97.1443314889,https://winnipegtransit.com/stops/11104,11104,Eastbound Ellice at Donald,0,11104
49.8541879588,,-97.1023874868,https://winnipegtransit.com/stops/50186,50186,Eastbound Niakwa at St. Anne's,0,50186
49.9176555682,,-97.1132984752,https://winnipegtransit.com/stops/40435,40435,Southbound Henderson at Harbison,0,40435
49.8714506166,,-97.1134574313,https://winnipegtransit.com/stops/50274,50274,Southbound St Mary's at Carriere,0,50274
49.9230456254,,-97.1084624603,https://winnipegtransit.com/stops/40431,40431,Southbound Henderson at Trent,0,40431
49.9218760984,,-97.1095531478,https://winnipegtransit.com/stops/40432,40432,Southbound Henderson at Munroe,0,40432
49.862548659,,-97.1453774546,https://winnipegtransit.com/stops/11037,11037,"Southbound Fort Rouge Station at Fort Rouge Station (F5, 557 to Windermere)",0,11037
49.8561411638,,-97.1496854328,https://winnipegtransit.com/stops/11034,11034,Northbound Southwest Transitway at Jubilee Station,0,11034
49.8629849125,,-97.1450963603,https://winnipegtransit.com/stops/11032,11032,Northbound Southwest Transitway at Fort Rouge Station,0,11032
49.8556924745,,-97.1503147452,https://winnipegtransit.com/stops/11033,11033,Southbound Southwest Transitway at Jubilee Station,0,11033
49.8735739002,,-97.140723981,https://winnipegtransit.com/stops/11030,11030,Northbound Southwest Transitway at Osborne Station,0,11030
49.862411065,,-97.1457723432,https://winnipegtransit.com/stops/11031,11031,Southbound Southwest Transitway at Fort Rouge Station,0,11031
49.8373972638,,-97.115242076,https://winnipegtransit.com/stops/50478,50478,Southbound Dunkirk at Hastings,0,50478
49.9013521226,,-97.2005971372,https://winnipegtransit.com/stops/21018,21018,Westbound Wellington at St. James,0,21018
49.9584909302,,-97.1835074253,https://winnipegtransit.com/stops/30615,30615,Northbound Mandalay at Anneville,0,30615
49.8623978422,,-97.1455084649,https://winnipegtransit.com/stops/11038,11038,Southbound Fort Rouge Station at Fort Rouge Station (557 to Sage Creek),0,11038
49.9008617238,,-96.9641217612,https://winnipegtransit.com/stops/40776,40776,Southbound Alex Taylor at Kildare,0,40776
49.8976950422,,-97.1996888066,https://winnipegtransit.com/stops/21017,21017,Eastbound Sargent at St. James,0,21017
49.9016334062,,-97.2094576534,https://winnipegtransit.com/stops/21016,21016,Westbound Wellington at Berry,0,21016
49.9606576905,,-97.1822964704,https://winnipegtransit.com/stops/30613,30613,Westbound Jefferson at Mandalay,0,30613
49.8846222434,,-97.2286441996,https://winnipegtransit.com/stops/20134,20134,Westbound Ness at Winchester,0,20134
49.8758835333,,-97.26396957,https://winnipegtransit.com/stops/21014,21014,Westbound Portage at Moray,0,21014
49.9596610366,,-97.1784020904,https://winnipegtransit.com/stops/30611,30611,Eastbound Jefferson at Lavender,0,30611
49.8963073806,,-97.2607302908,https://winnipegtransit.com/stops/21013,21013,Southbound Saulteaux at Moray,0,21013
49.954311277,,-97.1322347009,https://winnipegtransit.com/stops/30346,30346,Northbound Sinclair at Beecher,0,30346
49.8505223721,,-97.2263020162,https://winnipegtransit.com/stops/61031,61031,Eastbound West Taylor at Holland,0,61031
49.851073859,,-97.2300101397,https://winnipegtransit.com/stops/61030,61030,Eastbound West Taylor at Shaftesbury,0,61030
49.8500609694,,-97.2185146511,https://winnipegtransit.com/stops/61033,61033,Eastbound Taylor at Coleraine,0,61033
49.8500789001,,-97.2214353727,https://winnipegtransit.com/stops/61032,61032,Eastbound Taylor at Park South,0,61032
49.9327100738,,-97.0662224003,https://winnipegtransit.com/stops/47013,47013,Northbound Gateway at Burnett,0,47013
49.9172226508,,-97.0858298566,https://winnipegtransit.com/stops/47012,47012,Northbound Gateway at Fleming,0,47012
49.9111137086,,-97.1026891249,https://winnipegtransit.com/stops/47011,47011,Eastbound Chalmers at Watt,0,47011
49.9115152228,,-96.979705835,https://winnipegtransit.com/stops/47010,47010,Southbound Redonda at Summerlea,0,47010
49.9171562617,,-97.0861668255,https://winnipegtransit.com/stops/47017,47017,Southbound Gateway at Fleming,0,47017
49.9325116988,,-97.0667320114,https://winnipegtransit.com/stops/47016,47016,Southbound Gateway at Burnett,0,47016
49.9354350646,,-97.0629637443,https://winnipegtransit.com/stops/47015,47015,Southbound Gateway at Springfield,0,47015
49.9357391926,,-97.0623244182,https://winnipegtransit.com/stops/47014,47014,Northbound Gateway at Springfield,0,47014
49.9109626226,,-97.1033497179,https://winnipegtransit.com/stops/47018,47018,Southbound Watt at Chalmers,0,47018
49.798956668,,-97.1078133929,https://winnipegtransit.com/stops/50984,50984,Westbound Aldgate at Eastcote,0,50984
49.8002235096,,-97.1121277208,https://winnipegtransit.com/stops/50986,50986,Northbound Aldgate at Becontree,0,50986
49.8245782745,,-97.0639750322,https://winnipegtransit.com/stops/51054,51054,Southbound Evelyne Reese at Geneva,0,51054
49.936138638,,-97.2246932525,https://winnipegtransit.com/stops/30964,30964,Northbound Eagle at Oak Point,0,30964
49.8224088759,,-97.0585140964,https://winnipegtransit.com/stops/51056,51056,Eastbound Jack Reimer at Eau-Claire,0,51056
49.8229173041,,-97.0539750197,https://winnipegtransit.com/stops/51057,51057,Northbound De La Seigneurie at Jack Reimer,0,51057
49.8330754067,,-97.0675434906,https://winnipegtransit.com/stops/51050,51050,Eastbound Island Lakes at Island Shore,0,51050
49.834905052,,-97.0639937571,https://winnipegtransit.com/stops/51051,51051,Eastbound Island Lakes at Desjardins,0,51051
49.8288561105,,-97.063206292,https://winnipegtransit.com/stops/51052,51052,Northbound Island Shore at Evelyne Reese,0,51052
49.8272389169,,-97.0643971924,https://winnipegtransit.com/stops/51053,51053,Southbound Evelyne Reese at Bonaventure,0,51053
49.8180459596,,-97.1222640307,https://winnipegtransit.com/stops/50695,50695,Southbound River at Minnetonka,0,50695
49.8178784484,,-97.1263577687,https://winnipegtransit.com/stops/50694,50694,Southbound River at McNulty East,0,50694
49.8250047757,,-97.0545447553,https://winnipegtransit.com/stops/51058,51058,Northbound De La Seigneurie at Lucerne,0,51058
49.826690304,,-97.0563542855,https://winnipegtransit.com/stops/51059,51059,Northbound De La Seigneurie at Warde,0,51059
49.8237327371,,-97.1497403932,https://winnipegtransit.com/stops/60926,60926,Eastbound Plaza at Plaza East,0,60926
49.8172581316,,-97.1319425443,https://winnipegtransit.com/stops/50692,50692,Southbound River at Woodlawn,0,50692
49.8653100625,,-97.0727004707,https://winnipegtransit.com/stops/50053,50053,Westbound Betournay at Speers,0,50053
49.8655891454,,-97.0721744711,https://winnipegtransit.com/stops/50052,50052,Northbound Speers at Betournay,0,50052
49.8303792062,,-97.0877171318,https://winnipegtransit.com/stops/50509,50509,Southbound St Anne's at Woodydell,0,50509
49.8303181498,,-97.0872884589,https://winnipegtransit.com/stops/50508,50508,Northbound St Anne's at Woodydell,0,50508
49.8214019305,,-97.0997220632,https://winnipegtransit.com/stops/50504,50504,Southbound Dakota at Hyatt,0,50504
49.8243284533,,-97.1386500446,https://winnipegtransit.com/stops/50500,50500,Southbound River at Abinojii Mikanah,0,50500
49.8351867488,,-97.0534407891,https://winnipegtransit.com/stops/50503,50503,Southbound De La Seigneurie at Cassin,0,50503
49.8233085625,,-97.0876900684,https://winnipegtransit.com/stops/50502,50502,Westbound Compark at Ashworth,0,50502
49.8021201264,,-97.16572681,https://winnipegtransit.com/stops/61259,61259,Southbound Markham at Bison,0,61259
49.7804203301,,-97.1728948031,https://winnipegtransit.com/stops/61251,61251,Eastbound Kirkbridge at Tim Sale,0,61251
49.8067824031,,-97.1360707922,https://winnipegtransit.com/stops/61253,61253,Eastbound Dafoe at Agriculture,0,61253
49.7805363192,,-97.1722653242,https://winnipegtransit.com/stops/61252,61252,Westbound Kirkbridge at Millstream,0,61252
49.8096276631,,-97.1423971182,https://winnipegtransit.com/stops/61255,61255,Westbound Bohemier at University Crescent,0,61255
49.8085850556,,-97.1307197192,https://winnipegtransit.com/stops/61254,61254,Eastbound Dafoe at U of M Station,0,61254
49.8397385504,,-97.2211055016,https://winnipegtransit.com/stops/61257,61257,Southbound Seasons of Tuxedo at Seasons of Tuxedo,0,61257
49.8454810269,,-97.2172502907,https://winnipegtransit.com/stops/61256,61256,Northbound Outlet Collection at Outlet Collection,0,61256
49.8366492588,,-97.1832096614,https://winnipegtransit.com/stops/60816,60816,Southbound Lindenwood at Shorecrest,0,60816
49.8344567976,,-97.1839315446,https://winnipegtransit.com/stops/60817,60817,Southbound Lindenwood at Thorncliff,0,60817
49.8186006856,,-97.1794926145,https://winnipegtransit.com/stops/60810,60810,Southbound Waverley at Scurfield,0,60810
49.8526449367,,-97.1759320713,https://winnipegtransit.com/stops/60811,60811,Southbound Cambridge at Mathers,0,60811
49.8504578248,,-97.295040579,https://winnipegtransit.com/stops/60812,60812,Eastbound Rannock at Scotswood,0,60812
49.8422229444,,-97.1852957396,https://winnipegtransit.com/stops/60813,60813,Southbound Avon at Lindenwood West,0,60813
